[{"Description":"Rio Tinto Alcan Inc.","country":"Australia","commodity":"Aluminum","fac_name":"Yarwun alumina refinery","latitude":-23.87,"longitude":151.29,"capacity":"1400","symbol":"RIO","Company_Type":"Public"},{"Description":"Boyne Smelters Ltd., operator","country":"Australia","commodity":"Aluminum","fac_name":"Boyne Island aluminum smelter","latitude":-23.93,"longitude":151.34,"capacity":"550","symbol":"No Value","Company_Type":"Private"},{"Description":"Tomago Aluminum Co. Pty. Ltd., operator","country":"Australia","commodity":"Aluminum","fac_name":"Tomago aluminum smelter","latitude":-32.82,"longitude":151.72,"capacity":"525","symbol":"No Value","Company_Type":"Private"},{"Description":"Alcoa of Australia, manager","country":"Australia","commodity":"Aluminum","fac_name":"Portland aluminum smelter","latitude":-38.38,"longitude":141.63,"capacity":"345","symbol":"AA","Company_Type":"Public"},{"Description":"Alcoa of Australia","country":"Australia","commodity":"Aluminum","fac_name":"Point Henry aluminum smelter","latitude":-38.14,"longitude":144.42,"capacity":"185","symbol":"AA","Company_Type":"Public"},{"Description":"Hydro Aluminum Kurri Kurri Pty. Ltd.","country":"Australia","commodity":"Aluminum","fac_name":"Kurri Kurri aluminum smelter","latitude":-32.79,"longitude":151.48,"capacity":"165","symbol":"No Value","Company_Type":"Private"},{"Description":"Rio Tinto Alcan Inc.","country":"Australia","commodity":"Aluminum","fac_name":"Bell Bay aluminum smelter","latitude":-41.13,"longitude":146.87,"capacity":"160","symbol":"RIO","Company_Type":"Public"},{"Description":"BHP Billiton Ltd.","country":"Australia","commodity":"Coal","fac_name":"Goonyella-Riverside open pit coal mines","latitude":-21.74,"longitude":147.98,"capacity":"16000","symbol":"BBL","Company_Type":"Public"},{"Description":"Coal and Allied Industries Ltd., manager","country":"Australia","commodity":"Coal","fac_name":"Hunter Valley Operations (Carrington Chestnut, Howick, Hunt Valley No. 1, Lemington, Riverview open pit coal mine)","latitude":-32.38,"longitude":151.02,"capacity":"15000","symbol":"No Value","Company_Type":"Private"},{"Description":"Xstrata plc.","country":"Australia","commodity":"Coal","fac_name":"Newlands-Collinsville-Abbot Point open pit\/longwall coal mine","latitude":-21.23,"longitude":147.91,"capacity":"15000","symbol":"No Value","Company_Type":"Private"},{"Description":"BHP Billiton Ltd.","country":"Australia","commodity":"Coal","fac_name":"Mount Arthur open pit coal mine","latitude":-32.33,"longitude":150.86,"capacity":"15000","symbol":"BBL","Company_Type":"Public"},{"Description":"BHP Billiton Mitsubishi Alliance, manager","country":"Australia","commodity":"Coal","fac_name":"Blackwater open pit coal mine (includes South Blackwater)","latitude":-23.77,"longitude":148.84,"capacity":"14000","symbol":"BBL","Company_Type":"Public"},{"Description":"Rio Tinto Ltd.,  manager","country":"Australia","commodity":"Coal","fac_name":"Blair Athol open pit coal mine","latitude":-22.7,"longitude":147.55,"capacity":"13000","symbol":"RIO","Company_Type":"Public"},{"Description":"Coal and Allied Industries Ltd.","country":"Australia","commodity":"Coal","fac_name":"Mount Thorley open pit coal mine","latitude":-32.66,"longitude":151.08,"capacity":"12000","symbol":"No Value","Company_Type":"Private"},{"Description":"Anglo Coal Pty. Ltd.","country":"Australia","commodity":"Coal","fac_name":"Callide coal mine","latitude":-24.21,"longitude":150.5,"capacity":"10700","symbol":"No Value","Company_Type":"Private"},{"Description":"Oakbridge Pty. Ltd., manager","country":"Australia","commodity":"Coal","fac_name":"Bulga open pit\/longwall coal mine","latitude":-32.61,"longitude":151.06,"capacity":"10000","symbol":"No Value","Company_Type":"Private"},{"Description":"Xstrata plc","country":"Australia","commodity":"Coal","fac_name":"Oaky Creek longwall and Alliance open pit coal mine","latitude":-23.06,"longitude":148.51,"capacity":"9500","symbol":"No Value","Company_Type":"Private"},{"Description":"Idemitsu Kosan Co. Ltd.","country":"Australia","commodity":"Coal","fac_name":"Ensham-Yongala open pit coal mine","latitude":-23.46,"longitude":148.49,"capacity":"9000","symbol":"No Value","Company_Type":"Private"},{"Description":"Wesfarmers Ltd.","country":"Australia","commodity":"Coal","fac_name":"Curragh open pit coal mine","latitude":-23.21,"longitude":148.32,"capacity":"9000","symbol":"No Value","Company_Type":"Private"},{"Description":"Illawarra Coal Holdings Pty. Ltd., operator","country":"Australia","commodity":"Coal","fac_name":"Appin longwall coal mine","latitude":-34.21,"longitude":150.79,"capacity":"8800","symbol":"No Value","Company_Type":"Private"},{"Description":"Rio Tinto Ltd.","country":"Australia","commodity":"Coal","fac_name":"Hail Creek open pit coal mine","latitude":-21.49,"longitude":148.38,"capacity":"8000","symbol":"RIO","Company_Type":"Public"},{"Description":"Xstrata plc.","country":"Australia","commodity":"Coal","fac_name":"Rollestone open pit coal mine","latitude":-24.45,"longitude":148.41,"capacity":"8000","symbol":"No Value","Company_Type":"Private"},{"Description":"Xstrata plc.","country":"Australia","commodity":"Coal","fac_name":"Mount Owen open pit coal mine","latitude":-32.45,"longitude":150.97,"capacity":"7700","symbol":"No Value","Company_Type":"Private"},{"Description":"Anglo American Plc","country":"Australia","commodity":"Coal","fac_name":"Dawson Coal complex (includes Moura, Theodore and Taroom)","latitude":-24.71,"longitude":150.06,"capacity":"7000","symbol":"No Value","Company_Type":"Private"},{"Description":"Rio Tinto Ltd.","country":"Australia","commodity":"Coal","fac_name":"Tarong-Meandu open pit coal mine","latitude":-26.81,"longitude":151.92,"capacity":"7000","symbol":"RIO","Company_Type":"Public"},{"Description":"Coal and Allied Industries Ltd., manager","country":"Australia","commodity":"Coal","fac_name":"Bengalla open pit coal mine","latitude":-32.27,"longitude":150.84,"capacity":"6600","symbol":"No Value","Company_Type":"Private"},{"Description":"Peabody Energy Corp.","country":"Australia","commodity":"Coal","fac_name":"Wambo open pit\/ underground coal mine","latitude":-32.57,"longitude":151.0,"capacity":"6000","symbol":"BTU","Company_Type":"Public"},{"Description":"Anglo American Plc","country":"Australia","commodity":"Coal","fac_name":"German Creek and German Creek East open pit\/underground coal mine","latitude":-22.93,"longitude":148.56,"capacity":"6000","symbol":"NGLOY","Company_Type":"Public"},{"Description":"Peabody Energy Corp.","country":"Australia","commodity":"Coal","fac_name":"Burton open pit coal mine","latitude":-21.36,"longitude":147.92,"capacity":"5800","symbol":"BTU","Company_Type":"Public"},{"Description":"Anglo Coal Holdings Australia Ltd.","country":"Australia","commodity":"Coal","fac_name":"Moranbah North longwall coal mine","latitude":-21.88,"longitude":147.96,"capacity":"5800","symbol":"No Value","Company_Type":"Private"},{"Description":"BHP Billiton Mitsubishi Alliance, manager","country":"Australia","commodity":"Coal","fac_name":"Gregory Crinum open pit\/ underground coal mine","latitude":-23.19,"longitude":148.37,"capacity":"5500","symbol":"BBL","Company_Type":"Public"},{"Description":"BHP Billiton Ltd.","country":"Australia","commodity":"Coal","fac_name":"Dendrobium longwall coal mine","latitude":-34.52,"longitude":150.73,"capacity":"5200","symbol":"BBL","Company_Type":"Public"},{"Description":"Anglo Coal Holdings Australia Ltd., manager","country":"Australia","commodity":"Coal","fac_name":"Drayton open pit coal mine","latitude":-32.34,"longitude":150.93,"capacity":"5000","symbol":"No Value","Company_Type":"Private"},{"Description":"Centennial Coal Co. Ltd.","country":"Australia","commodity":"Coal","fac_name":"Mondalong underground coal mine","latitude":-33.17,"longitude":151.52,"capacity":"4500","symbol":"CEY","Company_Type":"Public"},{"Description":"BHP Mitsui Coal Pty. Ltd.","country":"Australia","commodity":"Coal","fac_name":"South Walker Creek open pit\/ underground coal mine","latitude":-21.79,"longitude":148.47,"capacity":"4300","symbol":"No Value","Company_Type":"Private"},{"Description":"Camberwell Coal Pty. Ltd., manager","country":"Australia","commodity":"Coal","fac_name":"Camberwell open pit coal mine","latitude":-32.68,"longitude":151.13,"capacity":"4000","symbol":"No Value","Company_Type":"Private"},{"Description":"Wesfarmers Premier Coal Ltd.","country":"Australia","commodity":"Coal","fac_name":"Premier open pit coal mine","latitude":-33.41,"longitude":116.29,"capacity":"4000","symbol":"No Value","Company_Type":"Private"},{"Description":"Anglo Coal Pty. Ltd.","country":"Australia","commodity":"Coal","fac_name":"Boundary Hill open pit coal mine (includes Callide)","latitude":-24.31,"longitude":150.63,"capacity":"4000","symbol":"No Value","Company_Type":"Private"},{"Description":"Felix Resources Ltd.","country":"Australia","commodity":"Coal","fac_name":"Ashton open pit\/ underground coal mine","latitude":-32.52,"longitude":151.03,"capacity":"4000","symbol":"No Value","Company_Type":"Private"},{"Description":"Australian Premium Coals Pty. Ltd., manager","country":"Australia","commodity":"Coal","fac_name":"Coppabella open pit coal mine","latitude":-21.86,"longitude":148.44,"capacity":"4000","symbol":"No Value","Company_Type":"Private"},{"Description":"Xstrata Coal Australia Pty. Ltd.","country":"Australia","commodity":"Coal","fac_name":"Liddell open pit coal mine","latitude":-32.41,"longitude":151.08,"capacity":"4000","symbol":"No Value","Company_Type":"Private"},{"Description":"Centennial Coal Co. Ltd.","country":"Australia","commodity":"Coal","fac_name":"Newstan longwall coal mine","latitude":-32.96,"longitude":151.59,"capacity":"4000","symbol":"No Value","Company_Type":"Private"},{"Description":"Queensland Coal Mine Management Pty. Ltd.","country":"Australia","commodity":"Coal","fac_name":"Jellinbah East open pit coal mine","latitude":-23.39,"longitude":148.95,"capacity":"4000","symbol":"NHPEF","Company_Type":"Public"},{"Description":"New Hope Corp. Ltd.","country":"Australia","commodity":"Coal","fac_name":"New Acland open pit coal mine","latitude":-27.27,"longitude":151.71,"capacity":"3750","symbol":"No Value","Company_Type":"Private"},{"Description":"Anglo Coal Holdings Australia Ltd.","country":"Australia","commodity":"Coal","fac_name":"Dartbrook longwall coal mine","latitude":-32.19,"longitude":150.9,"capacity":"3750","symbol":"No Value","Company_Type":"Private"},{"Description":"Roche Mining Pty. Ltd., operator","country":"Australia","commodity":"Coal","fac_name":"Commodore open pit coal mine","latitude":-27.95,"longitude":151.26,"capacity":"3600","symbol":"RHHBY","Company_Type":"Public"},{"Description":"Foxleigh Mining Pty. Ltd.","country":"Australia","commodity":"Coal","fac_name":"Foxleigh open pit coal mine","latitude":-22.96,"longitude":148.77,"capacity":"3600","symbol":"No Value","Company_Type":"Private"},{"Description":"Xstrata Coal Australia Pty. Ltd.","country":"Australia","commodity":"Coal","fac_name":"Ravensworth-Narama open pit coal mine (includes Ravensworth East)","latitude":-32.46,"longitude":151.04,"capacity":"3500","symbol":"No Value","Company_Type":"Private"},{"Description":"Macarthur Coal Ltd.","country":"Australia","commodity":"Coal","fac_name":"Moorvale open pit coal mine","latitude":-21.98,"longitude":148.39,"capacity":"3400","symbol":"No Value","Company_Type":"Private"},{"Description":"Xstrata Coal Australia Pty. Ltd.","country":"Australia","commodity":"Coal","fac_name":"United Collieries underground coal mine","latitude":-32.53,"longitude":151.0,"capacity":"3000","symbol":"No Value","Company_Type":"Private"},{"Description":"Centennial Coal Co. Ltd., manager","country":"Australia","commodity":"Coal","fac_name":"Angus Place longwall coal mine","latitude":-33.35,"longitude":150.1,"capacity":"3000","symbol":"No Value","Company_Type":"Private"},{"Description":"Cumnock Coal Ltd.","country":"Australia","commodity":"Coal","fac_name":"Cumnock No. 1 open pit\/longwall coal mine","latitude":-32.29,"longitude":150.81,"capacity":"3000","symbol":"No Value","Company_Type":"Private"},{"Description":"BHP Billiton Mitsubishi Alliance","country":"Australia","commodity":"Coal","fac_name":"Broadmeadow open pit\/undergound coal mine","latitude":-21.78,"longitude":148.14,"capacity":"3000","symbol":"BBL","Company_Type":"Public"},{"Description":"Peabody Energy Corp.","country":"Australia","commodity":"Coal","fac_name":"North Goonyella longwall coal mine","latitude":-21.74,"longitude":147.98,"capacity":"3000","symbol":"BTU","Company_Type":"Public"},{"Description":"Oakbridge Pty. Ltd.","country":"Australia","commodity":"Coal","fac_name":"Baal Bone longwall coal mine","latitude":-33.29,"longitude":150.03,"capacity":"2500","symbol":"No Value","Company_Type":"Private"},{"Description":"Donaldson Coal  Pty. Ltd.","country":"Australia","commodity":"Coal","fac_name":"Donaldson open pit coal  mine","latitude":-32.81,"longitude":151.61,"capacity":"2500","symbol":"DCI","Company_Type":"Public"},{"Description":"Centennial Coal Co. Ltd., manager","country":"Australia","commodity":"Coal","fac_name":"Clarence underground coal mine","latitude":-33.46,"longitude":150.25,"capacity":"2500","symbol":"No Value","Company_Type":"Private"},{"Description":"BHP Billiton Ltd.","country":"Australia","commodity":"Coal","fac_name":"West Cliff longwall coal mine","latitude":-34.22,"longitude":150.82,"capacity":"2300","symbol":"BBL","Company_Type":"Public"},{"Description":"Gloucester Coal Ltd.","country":"Australia","commodity":"Coal","fac_name":"Duralie open  pit coal mine","latitude":-32.24,"longitude":150.94,"capacity":"2000","symbol":"No Value","Company_Type":"Private"},{"Description":"Gujarat NRE Resources NL","country":"Australia","commodity":"Coal","fac_name":"Elouera longwall coal mine","latitude":-34.48,"longitude":150.76,"capacity":"2000","symbol":"No Value","Company_Type":"Private"},{"Description":"The Griffin Coal Mining Co. Pty. Ltd.","country":"Australia","commodity":"Coal","fac_name":"Muja open pit coal mine","latitude":-33.43,"longitude":116.31,"capacity":"2000","symbol":"No Value","Company_Type":"Private"},{"Description":"Powercoal Pty. Ltd.","country":"Australia","commodity":"Coal","fac_name":"Awaba underground coal mine","latitude":-33.02,"longitude":151.54,"capacity":"2000","symbol":"No Value","Company_Type":"Private"},{"Description":"Bloomfield Colliers Pty. Ltd.","country":"Australia","commodity":"Coal","fac_name":"Rixs Creek open pit coal mine","latitude":-32.49,"longitude":151.13,"capacity":"2000","symbol":"No Value","Company_Type":"Private"},{"Description":"Muswellbrook Coal Co.","country":"Australia","commodity":"Coal","fac_name":"Muswellbrook No. 2 open pit coal mine","latitude":-32.27,"longitude":150.84,"capacity":"1700","symbol":"No Value","Company_Type":"Private"},{"Description":"Centennial Coal Co. Ltd.","country":"Australia","commodity":"Coal","fac_name":"Myuna underground coal mine","latitude":-33.06,"longitude":151.57,"capacity":"1500","symbol":"No Value","Company_Type":"Private"},{"Description":"Griffin Coal Mining Co. Pty. Ltd.","country":"Australia","commodity":"Coal","fac_name":"Ewington II open pit coal mine","latitude":-33.36,"longitude":116.26,"capacity":"1000","symbol":"No Value","Company_Type":"Private"},{"Description":"Loy Yang Power Ltd.","country":"Australia","commodity":"Coal","fac_name":"Loy Yang open pit lignite mine at Traralgon","latitude":-38.26,"longitude":146.57,"capacity":"30000","symbol":"No Value","Company_Type":"Private"},{"Description":"International Power Hazelwood","country":"Australia","commodity":"Coal","fac_name":"Hazelwood open pit lignite mine at Morwell","latitude":-38.26,"longitude":146.38,"capacity":"20000","symbol":"IBM","Company_Type":"Public"},{"Description":"CLP Power Asia Ltd.","country":"Australia","commodity":"Coal","fac_name":"Yallourn open pit lignite mine","latitude":-38.2,"longitude":146.35,"capacity":"18000","symbol":"No Value","Company_Type":"Private"},{"Description":"Fox Resources Ltd.","country":"Australia","commodity":"Cobalt","fac_name":"Radio Hill underground nickel-cobalt mine","latitude":-20.98,"longitude":116.86,"capacity":"200","symbol":"No Value","Company_Type":"Private"},{"Description":"Preston Resources Ltd.","country":"Australia","commodity":"Cobalt","fac_name":"Bulong open pit nickel-cobalt mine","latitude":-30.69,"longitude":121.82,"capacity":"200","symbol":"No Value","Company_Type":"Private"},{"Description":"Norilsk Nickel  Mining and Metallurgical","country":"Australia","commodity":"Cobalt","fac_name":"Cawse open pit nickel-cobalt mine","latitude":-30.53,"longitude":121.24,"capacity":"100","symbol":"No Value","Company_Type":"Private"},{"Description":"BHP Billiton Ltd.","country":"Australia","commodity":"Cobalt","fac_name":"Yabulu nickel-cobalt refinery","latitude":-19.2,"longitude":146.61,"capacity":"3","symbol":"BBL","Company_Type":"Public"},{"Description":"Minara Resources Ltd.","country":"Australia","commodity":"Cobalt","fac_name":"Murrin Murrin open pit nickel-cobalt mine","latitude":-28.76,"longitude":121.92,"capacity":"2","symbol":"No Value","Company_Type":"Private"},{"Description":"Xstrata plc","country":"Australia","commodity":"Copper","fac_name":"Townsville copper refinery","latitude":-19.33,"longitude":146.89,"capacity":"300","symbol":"No Value","Company_Type":"Private"},{"Description":"Xstrata plc","country":"Australia","commodity":"Copper","fac_name":"Mount Isa copper smelter","latitude":-20.73,"longitude":139.49,"capacity":"250","symbol":"No Value","Company_Type":"Private"},{"Description":"Olympic Dam Operations Pty. Ltd.","country":"Australia","commodity":"Copper","fac_name":"Olympic Dam underground copper-silver-gold-uranium mine","latitude":-30.46,"longitude":136.88,"capacity":"235","symbol":"No Value","Company_Type":"Private"},{"Description":"Olympic Dam Operations Pty. Ltd.","country":"Australia","commodity":"Copper","fac_name":"Olympic Dam copper refinery","latitude":-30.46,"longitude":136.88,"capacity":"235","symbol":"No Value","Company_Type":"Private"},{"Description":"Xstrata plc","country":"Australia","commodity":"Copper","fac_name":"Mount Isa underground copper-lead-zinc-silver mine (also includes Enterprise, George Fisher and Hilton  mines)","latitude":-20.73,"longitude":139.49,"capacity":"190","symbol":"No Value","Company_Type":"Private"},{"Description":"Furukawa Co. Ltd.","country":"Australia","commodity":"Copper","fac_name":"Port Kembla copper refinery","latitude":-34.48,"longitude":150.91,"capacity":"120","symbol":"No Value","Company_Type":"Private"},{"Description":"Furukawa Co. Ltd.","country":"Australia","commodity":"Copper","fac_name":"Port Kembla copper smelter","latitude":-34.48,"longitude":150.91,"capacity":"120","symbol":"No Value","Company_Type":"Private"},{"Description":"Xstrata plc","country":"Australia","commodity":"Copper","fac_name":"Ernest Henry open pit copper-gold mine","latitude":-20.43,"longitude":140.72,"capacity":"115","symbol":"No Value","Company_Type":"Private"},{"Description":"Rio Tinto Ltd.","country":"Australia","commodity":"Copper","fac_name":"Northparkes open pit\/underground copper-gold mine","latitude":-32.91,"longitude":148.05,"capacity":"90","symbol":"RIO","Company_Type":"Public"},{"Description":"Barminco Ply Ltd.","country":"Australia","commodity":"Copper","fac_name":"Eloise underground copper mine","latitude":-20.95,"longitude":140.98,"capacity":"70","symbol":"No Value","Company_Type":"Private"},{"Description":"Olympic Dam Operations Pty. Ltd.","country":"Australia","commodity":"Copper","fac_name":"Olympic Dam copper smelter","latitude":-30.46,"longitude":136.88,"capacity":"70","symbol":"No Value","Company_Type":"Private"},{"Description":"Aditya Birla Minerals Ltd.","country":"Australia","commodity":"Copper","fac_name":"Mount Gordon open pit copper (SW-EX) mine (Mammoth)","latitude":-19.7,"longitude":139.36,"capacity":"50","symbol":"No Value","Company_Type":"Private"},{"Description":"Barrick  Gold Corp.","country":"Australia","commodity":"Copper","fac_name":"Osborne underground copper-gold mine","latitude":-21.86,"longitude":140.92,"capacity":"50","symbol":"GOLD","Company_Type":"Public"},{"Description":"Sterlite Industries (India) Ltd.","country":"Australia","commodity":"Copper","fac_name":"Mount Lyell underground copper-gold mine","latitude":-42.06,"longitude":145.59,"capacity":"35","symbol":"No Value","Company_Type":"Private"},{"Description":"Glencore Australia Pty. Ltd.","country":"Australia","commodity":"Copper","fac_name":"Cobar underground copper mine","latitude":-31.41,"longitude":145.8,"capacity":"30","symbol":"No Value","Company_Type":"Private"},{"Description":"Newcrest Mining Ltd.","country":"Australia","commodity":"Copper","fac_name":"Ridgeway underground gold-copper mine","latitude":-33.34,"longitude":149.1,"capacity":"30","symbol":"No Value","Company_Type":"Private"},{"Description":"Aditya Birla Minerals Ltd.","country":"Australia","commodity":"Copper","fac_name":"Nifty open pit copper (SX-EX)  mine","latitude":-21.66,"longitude":121.57,"capacity":"25","symbol":"No Value","Company_Type":"Private"},{"Description":"Newcrest Mining Ltd.","country":"Australia","commodity":"Copper","fac_name":"Cadia Hill open pit gold-copper mine","latitude":-33.47,"longitude":149.0,"capacity":"25","symbol":"No Value","Company_Type":"Private"},{"Description":"Oxiana Ltd.","country":"Australia","commodity":"Copper","fac_name":"Golden Grove underground zinc-copper mine (Gossan Hill)","latitude":-28.74,"longitude":116.94,"capacity":"20","symbol":"No Value","Company_Type":"Private"},{"Description":"Barrick  Gold Corp.","country":"Australia","commodity":"Copper","fac_name":"Selwyn underground copper-gold mine","latitude":-21.54,"longitude":140.5,"capacity":"17","symbol":"GOLD","Company_Type":"Public"},{"Description":"Matrix Metals Ltd.","country":"Australia","commodity":"Copper","fac_name":"Leichardt copper mine","latitude":-19.99,"longitude":139.92,"capacity":"10","symbol":"No Value","Company_Type":"Private"},{"Description":"GoldCorp Inc","country":"Australia","commodity":"Copper","fac_name":"Peak underground gold-zinc-lead-copper-silver underground mine","latitude":-31.56,"longitude":145.87,"capacity":"3","symbol":"No Value","Company_Type":"Private"},{"Description":"OZ Minerals Ltd.","country":"Australia","commodity":"Copper","fac_name":"Rosebery underground zinc-lead-silver-copper-gold mine","latitude":-41.77,"longitude":145.55,"capacity":"2","symbol":"No Value","Company_Type":"Private"},{"Description":"Minara Resources Ltd.","country":"Australia","commodity":"Nickel","fac_name":"Murrin Murrin open pit nickel-cobalt mine","latitude":-28.76,"longitude":121.92,"capacity":"100","symbol":"No Value","Company_Type":"Private"},{"Description":"BHP Billiton Ltd.","country":"Australia","commodity":"Nickel","fac_name":"Kalgoorlie nickel smelter","latitude":-30.77,"longitude":121.51,"capacity":"100","symbol":"BBL","Company_Type":"Public"},{"Description":"BHP Billiton Ltd.","country":"Australia","commodity":"Nickel","fac_name":"Yabulu nickel-cobalt refinery","latitude":-19.2,"longitude":146.61,"capacity":"72","symbol":"BBL","Company_Type":"Public"},{"Description":"BHP Billiton Ltd.","country":"Australia","commodity":"Nickel","fac_name":"Kwinana nickel refinery","latitude":-32.25,"longitude":115.77,"capacity":"67","symbol":"BBL","Company_Type":"Public"},{"Description":"Minara Resources Ltd.","country":"Australia","commodity":"Nickel","fac_name":"Murrin Murrin nickel refinery","latitude":-28.76,"longitude":121.92,"capacity":"45","symbol":"No Value","Company_Type":"Private"},{"Description":"BHP Billiton Ltd.","country":"Australia","commodity":"Nickel","fac_name":"Leinster open pit\/underground nickel mines","latitude":-27.79,"longitude":120.7,"capacity":"44","symbol":"BBL","Company_Type":"Public"},{"Description":"BHP Billiton","country":"Australia","commodity":"Nickel","fac_name":"Mount Keith open pit nickel mine","latitude":-27.23,"longitude":120.59,"capacity":"40","symbol":"BBL","Company_Type":"Public"},{"Description":"BHP Billiton Ltd.","country":"Australia","commodity":"Nickel","fac_name":"Kambalda underground nickel mines","latitude":-31.19,"longitude":121.67,"capacity":"35","symbol":"BBL","Company_Type":"Public"},{"Description":"Jubilee Mines NL","country":"Australia","commodity":"Nickel","fac_name":"Cosmos open pit nickel mine","latitude":-27.59,"longitude":120.58,"capacity":"13","symbol":"No Value","Company_Type":"Private"},{"Description":"Norilsk Nickel Mining and Metallurgical Co.","country":"Australia","commodity":"Nickel","fac_name":"Lake Johnson underground nickel mine (includes Maggie Hays, Maggie Hays Lake and Emily Ann)","latitude":-32.23,"longitude":120.5,"capacity":"12","symbol":"NLISY","Company_Type":"Public"},{"Description":"Norilsk Nickel Mining and Metallurgical Co.","country":"Australia","commodity":"Nickel","fac_name":"Black Swan underground nickel mine (includes Silver Swan)","latitude":-31.99,"longitude":141.42,"capacity":"10","symbol":"NLISY","Company_Type":"Public"},{"Description":"Mincor Resources NL","country":"Australia","commodity":"Nickel","fac_name":"Mitel underground nickel mine (includes Redross and Mariners)","latitude":-31.74,"longitude":121.74,"capacity":"10","symbol":"No Value","Company_Type":"Private"},{"Description":"Norilsk Nickel Mining and Metallurgical Co.","country":"Australia","commodity":"Nickel","fac_name":"Cawse open pit nickel-cobalt mine","latitude":-30.53,"longitude":121.24,"capacity":"9","symbol":"NLISY","Company_Type":"Public"},{"Description":"Fox Resources Ltd.","country":"Australia","commodity":"Nickel","fac_name":"Radio Hill underground nickel-cobalt mine","latitude":-20.98,"longitude":116.86,"capacity":"4","symbol":"No Value","Company_Type":"Private"},{"Description":"Barapukuria Coal Mining Co. Ltd.","country":"Bangladesh","commodity":"Coal","fac_name":"Mine at Barapukuria","latitude":24.3,"longitude":88.97,"capacity":"1000","symbol":"No Value","Company_Type":"Private"},{"Description":"No. 3 Mining Enterprise","country":"Burma","commodity":"Coal","fac_name":"Kalewa coal mine","latitude":23.2,"longitude":94.3,"capacity":"13000","symbol":"No Value","Company_Type":"Private"},{"Description":"Mining Enterprise No.1","country":"Burma","commodity":"Copper","fac_name":"Monywa Copper Project - the Monywa Refinery","latitude":22.12,"longitude":95.04,"capacity":"40000","symbol":"No Value","Company_Type":"Private"},{"Description":"Mining Enterprise No.1","country":"Burma","commodity":"Copper","fac_name":"Monywa Copper Project - the S&K Mine","latitude":22.12,"longitude":95.04,"capacity":"40000","symbol":"No Value","Company_Type":"Private"},{"Description":"Yichuan Yugang Longquan Aluminum Co.","country":"China","commodity":"Aluminum","fac_name":"Plant at Yichuan","latitude":34.42,"longitude":112.42,"capacity":"600","symbol":"No Value","Company_Type":"Private"},{"Description":"Qingtongxia Aluminum Plant","country":"China","commodity":"Aluminum","fac_name":"Plant at Qingtongxia","latitude":37.98,"longitude":105.93,"capacity":"560","symbol":"No Value","Company_Type":"Private"},{"Description":"Qinghai Aluminum Smelter","country":"China","commodity":"Aluminum","fac_name":"Plant at Xining","latitude":36.67,"longitude":101.67,"capacity":"560","symbol":"No Value","Company_Type":"Private"},{"Description":"Yunnan Aluminum Plant","country":"China","commodity":"Aluminum","fac_name":"Plant at Kunming","latitude":25.01,"longitude":102.62,"capacity":"500","symbol":"No Value","Company_Type":"Private"},{"Description":"Jiaozuo Wanfang Aluminum Co. Ltd.","country":"China","commodity":"Aluminum","fac_name":"Plant at Jiaozuo","latitude":35.24,"longitude":113.17,"capacity":"420","symbol":"No Value","Company_Type":"Private"},{"Description":"Guizhou Aluminum Plant","country":"China","commodity":"Aluminum","fac_name":"Plant at Guiyang","latitude":26.65,"longitude":106.68,"capacity":"400","symbol":"No Value","Company_Type":"Private"},{"Description":"Huaze Aluminum and Power Co. Ltd.","country":"China","commodity":"Aluminum","fac_name":"Plant at Hejin","latitude":35.62,"longitude":110.65,"capacity":"400","symbol":"No Value","Company_Type":"Private"},{"Description":"Henan Huanghe Mianchi Aluminum Plant","country":"China","commodity":"Aluminum","fac_name":"Plant at Mianchi","latitude":34.73,"longitude":111.91,"capacity":"400","symbol":"No Value","Company_Type":"Private"},{"Description":"Pingguo Aluminum Co.","country":"China","commodity":"Aluminum","fac_name":"Plant at Pingguo","latitude":23.34,"longitude":107.5,"capacity":"380","symbol":"No Value","Company_Type":"Private"},{"Description":"Shandong Chiping Xinfa Aluminum and Power Group","country":"China","commodity":"Aluminum","fac_name":"Plant at Chiping","latitude":36.6,"longitude":116.21,"capacity":"360","symbol":"No Value","Company_Type":"Private"},{"Description":"Qiaotou Aluminum Co. Electrolysis Branch","country":"China","commodity":"Aluminum","fac_name":"Plant at Datong","latitude":36.88,"longitude":101.73,"capacity":"350","symbol":"No Value","Company_Type":"Private"},{"Description":"East Hope Aluminum Plant","country":"China","commodity":"Aluminum","fac_name":"Plant at Baotou","latitude":40.65,"longitude":109.93,"capacity":"330","symbol":"No Value","Company_Type":"Private"},{"Description":"Shandong Nanshan Industry Co. Ltd.","country":"China","commodity":"Aluminum","fac_name":"Plant at Longkou","latitude":37.66,"longitude":120.32,"capacity":"280","symbol":"No Value","Company_Type":"Private"},{"Description":"East Hope Aluminum Plant","country":"China","commodity":"Aluminum","fac_name":"Plant at Baotou","latitude":40.65,"longitude":109.82,"capacity":"250","symbol":"No Value","Company_Type":"Private"},{"Description":"Baotou Aluminum Plant","country":"China","commodity":"Aluminum","fac_name":"Plant at Baotou","latitude":40.65,"longitude":109.82,"capacity":"250","symbol":"No Value","Company_Type":"Private"},{"Description":"Tongchuan Xingguang Aluminum Co. Ltd.","country":"China","commodity":"Aluminum","fac_name":"Plant at Tongchuan","latitude":34.88,"longitude":108.97,"capacity":"250","symbol":"No Value","Company_Type":"Private"},{"Description":"Bingzhou Weiqiao Aluminum Co.","country":"China","commodity":"Aluminum","fac_name":"Plant at Zouping","latitude":36.9,"longitude":117.77,"capacity":"250","symbol":"No Value","Company_Type":"Private"},{"Description":"Liancheng Aluminum Plant","country":"China","commodity":"Aluminum","fac_name":"Plant at Lanzhou","latitude":36.06,"longitude":103.79,"capacity":"235","symbol":"No Value","Company_Type":"Private"},{"Description":"Lanzhou Aluminum Plant","country":"China","commodity":"Aluminum","fac_name":"Plant at Lanzhou","latitude":36.06,"longitude":103.79,"capacity":"210","symbol":"No Value","Company_Type":"Private"},{"Description":"Hunan Chuanquan Aluminum Co. Ltd.","country":"China","commodity":"Aluminum","fac_name":"Plant at Taoyuan","latitude":28.9,"longitude":111.48,"capacity":"210","symbol":"No Value","Company_Type":"Private"},{"Description":"Shanxi Guanlu Aluminum Co. Ltd.","country":"China","commodity":"Aluminum","fac_name":"Plant at Yuncheng","latitude":35.02,"longitude":110.99,"capacity":"210","symbol":"No Value","Company_Type":"Private"},{"Description":"Henan Shenhuo Aluminum-Electricity Co. Ltd.","country":"China","commodity":"Aluminum","fac_name":"Plant at Yongcheng","latitude":33.94,"longitude":116.43,"capacity":"200","symbol":"No Value","Company_Type":"Private"},{"Description":"Fushun Aluminum Plant","country":"China","commodity":"Aluminum","fac_name":"Plant at Fushun","latitude":41.86,"longitude":123.92,"capacity":"190","symbol":"No Value","Company_Type":"Private"},{"Description":"Henan Zongfu Industry Co. Ltd.","country":"China","commodity":"Aluminum","fac_name":"Plant at Gongyi","latitude":34.77,"longitude":113.02,"capacity":"180","symbol":"No Value","Company_Type":"Private"},{"Description":"Henan Wanji Aluminum Co. Ltd.","country":"China","commodity":"Aluminum","fac_name":"Plant at Luoyang","latitude":34.68,"longitude":112.39,"capacity":"180","symbol":"No Value","Company_Type":"Private"},{"Description":"Shangqiu Aluminum Smelter","country":"China","commodity":"Aluminum","fac_name":"Plant at Shangqiu","latitude":34.45,"longitude":115.65,"capacity":"180","symbol":"No Value","Company_Type":"Private"},{"Description":"Baiyin Aluminum Plant","country":"China","commodity":"Aluminum","fac_name":"Plant at Baiyin","latitude":36.55,"longitude":104.21,"capacity":"150","symbol":"No Value","Company_Type":"Private"},{"Description":"Zouping Aluminum Co. Ltd.","country":"China","commodity":"Aluminum","fac_name":"Plant at Zouping","latitude":36.9,"longitude":117.77,"capacity":"150","symbol":"No Value","Company_Type":"Private"},{"Description":"Taishan Aluminum-Power Co. Ltd.","country":"China","commodity":"Aluminum","fac_name":"Plant at Fecheng","latitude":36.71,"longitude":121.24,"capacity":"125","symbol":"No Value","Company_Type":"Private"},{"Description":"Shandong Aluminum Plant","country":"China","commodity":"Aluminum","fac_name":"Plant at Zibo","latitude":36.74,"longitude":118.1,"capacity":"120","symbol":"No Value","Company_Type":"Private"},{"Description":"Qinghai West Mining Baihe Aluminum Co. Ltd.","country":"China","commodity":"Aluminum","fac_name":"Plant at Xining","latitude":36.67,"longitude":101.67,"capacity":"112","symbol":"No Value","Company_Type":"Private"},{"Description":"Hanjiang Danjiangkou Aluminum Co. Ltd.","country":"China","commodity":"Aluminum","fac_name":"Plant at Danjiangkou","latitude":32.53,"longitude":111.51,"capacity":"110","symbol":"No Value","Company_Type":"Private"},{"Description":"Sanmenxia Tianyuan Aluminum Co. Ltd.","country":"China","commodity":"Aluminum","fac_name":"Plant at Sanmenxia","latitude":34.77,"longitude":111.18,"capacity":"110","symbol":"No Value","Company_Type":"Private"},{"Description":"New Oriental Aluminum Co.","country":"China","commodity":"Aluminum","fac_name":"Plant at Taiyuan","latitude":37.78,"longitude":112.48,"capacity":"75","symbol":"EDU","Company_Type":"Public"},{"Description":"Zhengzhou Aluminum Plant","country":"China","commodity":"Aluminum","fac_name":"Plant at Zhengzhou","latitude":34.77,"longitude":113.6,"capacity":"60","symbol":"No Value","Company_Type":"Private"},{"Description":"Shanxi Provincial Government","country":"China","commodity":"Coal","fac_name":"Mine in Shanxi","latitude":37.0,"longitude":112.0,"capacity":"400000","symbol":"No Value","Company_Type":"Private"},{"Description":"Shenhua Coal Corp.","country":"China","commodity":"Coal","fac_name":"Mine in Nei Mongol","latitude":44.0,"longitude":112.0,"capacity":"150000","symbol":"No Value","Company_Type":"Private"},{"Description":"Shenhua Coal Corp.","country":"China","commodity":"Coal","fac_name":"Mine in Ningxia","latitude":37.0,"longitude":106.0,"capacity":"150000","symbol":"No Value","Company_Type":"Private"},{"Description":"Shenhua Coal Corp.","country":"China","commodity":"Coal","fac_name":"Mine in Shaanxi","latitude":36.0,"longitude":109.0,"capacity":"150000","symbol":"No Value","Company_Type":"Private"},{"Description":"Heilongjiang Provincial Government","country":"China","commodity":"Coal","fac_name":"Mine in Heilongjiang","latitude":48.0,"longitude":128.0,"capacity":"100000","symbol":"No Value","Company_Type":"Private"},{"Description":"Henan Provincial Government","country":"China","commodity":"Coal","fac_name":"Mine in Henan","latitude":34.0,"longitude":114.0,"capacity":"100000","symbol":"No Value","Company_Type":"Private"},{"Description":"Nei Mongol Provincial Government","country":"China","commodity":"Coal","fac_name":"Mine in Nei Mongol","latitude":44.0,"longitude":112.0,"capacity":"90000","symbol":"No Value","Company_Type":"Private"},{"Description":"Sichuan Provincial Government","country":"China","commodity":"Coal","fac_name":"Mine in Sichuan","latitude":30.5,"longitude":102.5,"capacity":"80000","symbol":"No Value","Company_Type":"Private"},{"Description":"Hebei Provincial Government","country":"China","commodity":"Coal","fac_name":"Mine in Hebei","latitude":39.01,"longitude":115.99,"capacity":"70000","symbol":"No Value","Company_Type":"Private"},{"Description":"Liaoning Provincial Government","country":"China","commodity":"Coal","fac_name":"Mine in Liaoning","latitude":40.99,"longitude":122.96,"capacity":"70000","symbol":"No Value","Company_Type":"Private"},{"Description":"Shandong Provincial Government","country":"China","commodity":"Coal","fac_name":"Mine in Shandong","latitude":35.98,"longitude":118.95,"capacity":"60000","symbol":"No Value","Company_Type":"Private"},{"Description":"Jinchuan Nonferrous Metals Corp.","country":"China","commodity":"Cobalt","fac_name":"Plant at Jinchang","latitude":38.51,"longitude":102.21,"capacity":"1200","symbol":"No Value","Company_Type":"Private"},{"Description":"Guixi Smelter","country":"China","commodity":"Copper","fac_name":"Plant at Guixi","latitude":28.31,"longitude":117.22,"capacity":"700","symbol":"No Value","Company_Type":"Private"},{"Description":"Jinchang Smelter","country":"China","commodity":"Copper","fac_name":"Plant at Tongling","latitude":38.51,"longitude":102.21,"capacity":"400","symbol":"No Value","Company_Type":"Private"},{"Description":"Shandong Yanggu Xiangguang Co. Ltd.","country":"China","commodity":"Copper","fac_name":"Plant at Yanggu","latitude":36.11,"longitude":115.78,"capacity":"400","symbol":"No Value","Company_Type":"Private"},{"Description":"Yunnan Smelter","country":"China","commodity":"Copper","fac_name":"Plant at Kunming","latitude":25.04,"longitude":102.72,"capacity":"250","symbol":"No Value","Company_Type":"Private"},{"Description":"Daye Nonferrous Metals Co.","country":"China","commodity":"Copper","fac_name":"Plant at Daye","latitude":30.13,"longitude":114.97,"capacity":"200","symbol":"No Value","Company_Type":"Private"},{"Description":"Dongying Fangyuan Nonferrous Metals Co. Ltd.","country":"China","commodity":"Copper","fac_name":"Plant at Dongying","latitude":37.46,"longitude":118.49,"capacity":"200","symbol":"No Value","Company_Type":"Private"},{"Description":"Jinchuan Nonferrous Metals Corp.","country":"China","commodity":"Copper","fac_name":"Plant at Jinchuan","latitude":38.51,"longitude":102.21,"capacity":"200","symbol":"No Value","Company_Type":"Private"},{"Description":"Tianjin Datong Copper Co. Ltd. (former Tianjin Copper Electrolysis Factory)","country":"China","commodity":"Copper","fac_name":"Plant in Tianjin","latitude":39.14,"longitude":117.18,"capacity":"200","symbol":"No Value","Company_Type":"Private"},{"Description":"Yantai Penghui Copper Industry Co. Ltd.","country":"China","commodity":"Copper","fac_name":"Plant at Yantai","latitude":37.53,"longitude":121.4,"capacity":"200","symbol":"No Value","Company_Type":"Private"},{"Description":"Zhangjiagang United Copper Co.","country":"China","commodity":"Copper","fac_name":"Plant at Zhangjiagang","latitude":31.87,"longitude":120.54,"capacity":"200","symbol":"No Value","Company_Type":"Private"},{"Description":"Jinchang Smelter","country":"China","commodity":"Copper","fac_name":"Plant at Tongling","latitude":30.95,"longitude":117.78,"capacity":"170","symbol":"No Value","Company_Type":"Private"},{"Description":"Chifeng Jingeng Copper Co. Ltd.","country":"China","commodity":"Copper","fac_name":"Plant at Chifeng","latitude":42.2,"longitude":118.89,"capacity":"100","symbol":"No Value","Company_Type":"Private"},{"Description":"Dongfang Copper Co.","country":"China","commodity":"Copper","fac_name":"Plant at Huludao","latitude":40.73,"longitude":120.87,"capacity":"100","symbol":"No Value","Company_Type":"Private"},{"Description":"Shandong Jinsheng Nonferrous Metals Corp.","country":"China","commodity":"Copper","fac_name":"Plant at Linyi","latitude":37.19,"longitude":116.87,"capacity":"100","symbol":"No Value","Company_Type":"Private"},{"Description":"Zhongtiaoshan Nonferrous Metals Co.","country":"China","commodity":"Copper","fac_name":"Plant at Yuangu","latitude":35.3,"longitude":111.66,"capacity":"100","symbol":"No Value","Company_Type":"Private"},{"Description":"Wuhu Smelter","country":"China","commodity":"Copper","fac_name":"Plant at Wuhu","latitude":31.34,"longitude":118.4,"capacity":"60","symbol":"No Value","Company_Type":"Private"},{"Description":"Baiyin Nonferrous Metals Co.","country":"China","commodity":"Copper","fac_name":"Plant at Baiyin","latitude":36.55,"longitude":104.21,"capacity":"50","symbol":"No Value","Company_Type":"Private"},{"Description":"Luoyang Copper Processing Factory","country":"China","commodity":"Copper","fac_name":"Plant at Luoyang","latitude":34.68,"longitude":112.39,"capacity":"50","symbol":"No Value","Company_Type":"Private"},{"Description":"Taiyuan Copper Industry Co.","country":"China","commodity":"Copper","fac_name":"Plant at Taiyuan","latitude":37.9,"longitude":112.58,"capacity":"30","symbol":"No Value","Company_Type":"Private"},{"Description":"Qinghai Yanhu Industry Group Co. Ltd.","country":"China","commodity":"Lithium","fac_name":"Plant at Golmud","latitude":36.39,"longitude":94.89,"capacity":"10","symbol":"No Value","Company_Type":"Private"},{"Description":"Xinjiang Lithium Co.","country":"China","commodity":"Lithium","fac_name":"Plant at Urumqi","latitude":43.8,"longitude":87.58,"capacity":"5","symbol":"No Value","Company_Type":"Private"},{"Description":"Sichuan Shehong Lithium Co. Ltd.","country":"China","commodity":"Lithium","fac_name":"Plant at Shehong","latitude":30.87,"longitude":105.39,"capacity":"2","symbol":"No Value","Company_Type":"Private"},{"Description":"Jinchuan Nonferrous Metals Corp.","country":"China","commodity":"Nickel","fac_name":"Plant at Jinchuan","latitude":38.5,"longitude":102.17,"capacity":"100","symbol":"No Value","Company_Type":"Private"},{"Description":"Xinjiang Fukang Smelter","country":"China","commodity":"Nickel","fac_name":"Plant at Fukang","latitude":44.17,"longitude":87.98,"capacity":"15","symbol":"No Value","Company_Type":"Private"},{"Description":"Jilin Jien Nickel Industry Co. Ltd.","country":"China","commodity":"Nickel","fac_name":"Plant at Panshi","latitude":42.94,"longitude":126.06,"capacity":"10","symbol":"No Value","Company_Type":"Private"},{"Description":"Chengdu Electro-Metallurgy Factory","country":"China","commodity":"Nickel","fac_name":"Plant at Chengdu","latitude":30.67,"longitude":104.07,"capacity":"5","symbol":"No Value","Company_Type":"Private"},{"Description":"Yuanjiang Nickel Industry Co. Ltd.","country":"China","commodity":"Nickel","fac_name":"Plant at Yuxi","latitude":24.36,"longitude":102.54,"capacity":"5","symbol":"No Value","Company_Type":"Private"},{"Description":"Bharat Aluminum Co. Ltd.","country":"India","commodity":"Aluminum","fac_name":"Korba Smelter","latitude":22.39,"longitude":82.73,"capacity":"350","symbol":"No Value","Company_Type":"Private"},{"Description":"National Aluminum Co. Ltd.","country":"India","commodity":"Aluminum","fac_name":"Angul Smelter","latitude":20.83,"longitude":85.16,"capacity":"345","symbol":"NATIONALUM","Company_Type":"Public"},{"Description":"Hindalco Industries Ltd.","country":"India","commodity":"Aluminum","fac_name":"Renukoot Smelter","latitude":24.22,"longitude":83.03,"capacity":"275","symbol":"No Value","Company_Type":"Private"},{"Description":"Hindalco Industries Ltd.","country":"India","commodity":"Aluminum","fac_name":"Hirakud Smelter","latitude":21.53,"longitude":83.91,"capacity":"100","symbol":"No Value","Company_Type":"Private"},{"Description":"Indian Aluminum Co. Ltd.","country":"India","commodity":"Aluminum","fac_name":"Belgaum Smelter","latitude":15.91,"longitude":74.54,"capacity":"70","symbol":"No Value","Company_Type":"Private"},{"Description":"Madras Aluminum Co. Ltd.","country":"India","commodity":"Aluminum","fac_name":"Mettur Smelter","latitude":11.77,"longitude":77.81,"capacity":"40","symbol":"No Value","Company_Type":"Private"},{"Description":"Indian Aluminum Co. Ltd.","country":"India","commodity":"Aluminum","fac_name":"Alupuram Smelter","latitude":10.08,"longitude":76.33,"capacity":"20","symbol":"No Value","Company_Type":"Private"},{"Description":"North Eastern Coalfields Ltd. (a subsidiary of Coal India Ltd.)","country":"India","commodity":"Coal","fac_name":"Mines in Assam","latitude":26.0,"longitude":93.0,"capacity":"640","symbol":"No Value","Company_Type":"Private"},{"Description":"South Eastern Coalfields Ltd. (a subsidiary of Coal India Ltd.)","country":"India","commodity":"Coal","fac_name":"Mines in Madhya Pradesh","latitude":23.5,"longitude":78.5,"capacity":"36","symbol":"No Value","Company_Type":"Private"},{"Description":"Central Coalfields Ltd. (a subsidiary of Coal India Ltd.)","country":"India","commodity":"Coal","fac_name":"Mines in Bihar","latitude":25.75,"longitude":85.75,"capacity":"27","symbol":"No Value","Company_Type":"Private"},{"Description":"Bharat Coking Coal Ltd. (a subsidiary of Coal India Ltd.)","country":"India","commodity":"Coal","fac_name":"Mines in Bihar","latitude":25.75,"longitude":85.75,"capacity":"26","symbol":"No Value","Company_Type":"Private"},{"Description":"Bharat Coking Coal Ltd. (a subsidiary of Coal India Ltd.)","country":"India","commodity":"Coal","fac_name":"Mines in West Bengal","latitude":24.0,"longitude":85.0,"capacity":"26","symbol":"No Value","Company_Type":"Private"},{"Description":"Northern Coalfields Ltd. (a subsidiary of Coal India Ltd.)","country":"India","commodity":"Coal","fac_name":"Mines in Madhya Pradesh","latitude":23.5,"longitude":78.5,"capacity":"24","symbol":"No Value","Company_Type":"Private"},{"Description":"Northern Coalfields Ltd. (a subsidiary of Coal India Ltd.)","country":"India","commodity":"Coal","fac_name":"Mines in Uttar Pradesh","latitude":27.25,"longitude":80.75,"capacity":"24","symbol":"No Value","Company_Type":"Private"},{"Description":"Eastern Coalfields Ltd. (a subsidiary of Coal India Ltd.)","country":"India","commodity":"Coal","fac_name":"Mines in Bihar","latitude":25.75,"longitude":85.75,"capacity":"21","symbol":"No Value","Company_Type":"Private"},{"Description":"Mahanadi Coalfields Ltd. (a subsidiary of Coal India Ltd.)","country":"India","commodity":"Coal","fac_name":"Mines in Orissa","latitude":21.0,"longitude":84.0,"capacity":"21","symbol":"No Value","Company_Type":"Private"},{"Description":"Eastern Coalfields Ltd. (a subsidiary of Coal India Ltd.)","country":"India","commodity":"Coal","fac_name":"Mines in West Bengal","latitude":24.0,"longitude":85.0,"capacity":"21","symbol":"No Value","Company_Type":"Private"},{"Description":"Singareni Collieries Co. Ltd.","country":"India","commodity":"Coal","fac_name":"Mines in Andhra Pradesh","latitude":16.0,"longitude":79.0,"capacity":"18","symbol":"No Value","Company_Type":"Private"},{"Description":"Western Coalfields Ltd. (a subsidiary of Coal India Ltd.)","country":"India","commodity":"Coal","fac_name":"Mines in Madhya Pradesh","latitude":23.5,"longitude":78.5,"capacity":"18","symbol":"No Value","Company_Type":"Private"},{"Description":"Western Coalfields Ltd. (a subsidiary of Coal India Ltd.)","country":"India","commodity":"Coal","fac_name":"Mines in Maharashtra","latitude":19.5,"longitude":75.0,"capacity":"18","symbol":"No Value","Company_Type":"Private"},{"Description":"Neyveli Lignite Corp. Ltd.","country":"India","commodity":"Coal","fac_name":"Mines in Tamil Nadu","latitude":11.0,"longitude":78.5,"capacity":"17","symbol":"No Value","Company_Type":"Private"},{"Description":"Hindustan Copper Co. Ltd.","country":"India","commodity":"Copper","fac_name":"Indian Copper Complex mines","latitude":22.59,"longitude":86.45,"capacity":"31","symbol":"No Value","Company_Type":"Private"},{"Description":"Hindustan Copper Co. Ltd.","country":"India","commodity":"Copper","fac_name":"Malanjkhand Copper Complex mines","latitude":22.02,"longitude":80.72,"capacity":"22","symbol":"No Value","Company_Type":"Private"},{"Description":"Hindustan Copper Co. Ltd.","country":"India","commodity":"Copper","fac_name":"Khetri Copper Complex mines","latitude":28.02,"longitude":75.77,"capacity":"15","symbol":"No Value","Company_Type":"Private"},{"Description":"Sterlite Industries Ltd.","country":"India","commodity":"Copper","fac_name":"Tuticorin Smelter","latitude":8.76,"longitude":78.17,"capacity":"400","symbol":"No Value","Company_Type":"Private"},{"Description":"Sterlite Industries Ltd.","country":"India","commodity":"Copper","fac_name":"Silvassa refinery","latitude":20.25,"longitude":73.01,"capacity":"300","symbol":"No Value","Company_Type":"Private"},{"Description":"Hindalco Industries Ltd.","country":"India","commodity":"Copper","fac_name":"Birla Copper Complex smelter","latitude":21.7,"longitude":72.55,"capacity":"70","symbol":"No Value","Company_Type":"Private"},{"Description":"Hindustan Copper Co. Ltd.","country":"India","commodity":"Copper","fac_name":"Khetri Copper Complex smelter-refinery","latitude":28.02,"longitude":75.77,"capacity":"45","symbol":"No Value","Company_Type":"Private"},{"Description":"Hindustan Copper Co. Ltd.","country":"India","commodity":"Copper","fac_name":"Indian Copper Complex smelter-refinery","latitude":22.59,"longitude":86.45,"capacity":"20","symbol":"No Value","Company_Type":"Private"},{"Description":"PT Indonesia Asahan Aluminum","country":"Indonesia","commodity":"Aluminum","fac_name":"Plant at Kual Tanjun","latitude":3.35,"longitude":99.45,"capacity":"250","symbol":"No Value","Company_Type":"Private"},{"Description":"PT Kaltim Prima Coal Co.","country":"Indonesia","commodity":"Coal","fac_name":"Mine at East Kutai Regency","latitude":-0.58,"longitude":117.32,"capacity":"36000","symbol":"No Value","Company_Type":"Private"},{"Description":"PT Adaro Indonesia","country":"Indonesia","commodity":"Coal","fac_name":"Mine at Paringin","latitude":-2.33,"longitude":115.43,"capacity":"35000","symbol":"No Value","Company_Type":"Private"},{"Description":"PT Adaro Indonesia","country":"Indonesia","commodity":"Coal","fac_name":"Mine at Tutupan","latitude":-2.27,"longitude":115.47,"capacity":"35000","symbol":"No Value","Company_Type":"Private"},{"Description":"PT Arutmin Indonesia","country":"Indonesia","commodity":"Coal","fac_name":"Mines at Mulia, Senakin, and Satui, South Kalimantan","latitude":-2.97,"longitude":116.28,"capacity":"20000","symbol":"No Value","Company_Type":"Private"},{"Description":"PT Tambang Batubara Bukit Asam (state-owned)","country":"Indonesia","commodity":"Coal","fac_name":"Mines at Tanjung Enim and Ombilin","latitude":-3.75,"longitude":103.8,"capacity":"19000","symbol":"No Value","Company_Type":"Private"},{"Description":"PT Berau Coal","country":"Indonesia","commodity":"Coal","fac_name":"Mine at Berau","latitude":2.23,"longitude":117.74,"capacity":"13000","symbol":"No Value","Company_Type":"Private"},{"Description":"PT Kideco Jaya Agung","country":"Indonesia","commodity":"Coal","fac_name":"Mine at Pasir","latitude":-2.0,"longitude":116.19,"capacity":"12000","symbol":"No Value","Company_Type":"Private"},{"Description":"PT Freeport Indonesia Co.","country":"Indonesia","commodity":"Copper","fac_name":"Mine at Ertsberg","latitude":-4.05,"longitude":137.12,"capacity":"800","symbol":"No Value","Company_Type":"Private"},{"Description":"PT Freeport Indonesia Co.","country":"Indonesia","commodity":"Copper","fac_name":"Mine at Grasberg","latitude":-4.05,"longitude":137.12,"capacity":"800","symbol":"No Value","Company_Type":"Private"},{"Description":"PT Newmont Nusa Tenggara","country":"Indonesia","commodity":"Copper","fac_name":"Mine at Sumbawa Island","latitude":-8.73,"longitude":118.0,"capacity":"300","symbol":"No Value","Company_Type":"Private"},{"Description":"PT Smelting Co.","country":"Indonesia","commodity":"Copper","fac_name":"Plant at Gresik","latitude":-7.15,"longitude":112.66,"capacity":"210","symbol":"No Value","Company_Type":"Private"},{"Description":"PT Antam Tbk","country":"Indonesia","commodity":"Nickel","fac_name":"Mine at Pomalaa, South Sulawesi and on Gebe Island","latitude":-4.05,"longitude":121.6,"capacity":"80","symbol":"No Value","Company_Type":"Private"},{"Description":"PT Antam Tbk","country":"Indonesia","commodity":"Nickel","fac_name":"Mine at Pomalaa, South Sulawesi and on Gebe Island","latitude":-4.33,"longitude":120.25,"capacity":"80","symbol":"No Value","Company_Type":"Private"},{"Description":"PT Antam Tbk","country":"Indonesia","commodity":"Nickel","fac_name":"Mine at Pomalaa, South Sulawesi and on Gebe Island","latitude":-0.08,"longitude":129.33,"capacity":"80","symbol":"No Value","Company_Type":"Private"},{"Description":"PT International Nickel Indonesia Tbk","country":"Indonesia","commodity":"Nickel","fac_name":"Mine at Soroako","latitude":-2.52,"longitude":121.35,"capacity":"70","symbol":"No Value","Company_Type":"Private"},{"Description":"Kushiro Coal Mine Co. Ltd.","country":"Japan","commodity":"Coal","fac_name":"Mine at Kushiro","latitude":43.0,"longitude":144.37,"capacity":"750","symbol":"No Value","Company_Type":"Private"},{"Description":"Nippon Mining and Metals Co. Ltd. (wholly owned subsidiary of Nikko Kyodo Co. Ltd.)","country":"Japan","commodity":"Copper","fac_name":"Refinery at Hitachi","latitude":36.55,"longitude":140.64,"capacity":"450","symbol":"No Value","Company_Type":"Private"},{"Description":"Nippon Mining and Metals Co. Ltd. (wholly owned subsidiary of Nikko Kyodo Co. Ltd.)","country":"Japan","commodity":"Copper","fac_name":"Refinery at Saganoseki","latitude":33.25,"longitude":131.88,"capacity":"450","symbol":"No Value","Company_Type":"Private"},{"Description":"Sumitomo Metal Mining Co. Ltd.","country":"Japan","commodity":"Copper","fac_name":"Refinery at Besshi\/Toyo (Saijyo)","latitude":33.85,"longitude":133.38,"capacity":"410","symbol":"SMFG","Company_Type":"Public"},{"Description":"Onahama Smelting and Refining Co. Ltd.","country":"Japan","commodity":"Copper","fac_name":"Refinery at Onahama","latitude":36.94,"longitude":140.87,"capacity":"258","symbol":"No Value","Company_Type":"Private"},{"Description":"Hibi Kyodo Smelting Co. Ltd.","country":"Japan","commodity":"Copper","fac_name":"Refinery at Tamano","latitude":34.51,"longitude":133.95,"capacity":"228","symbol":"No Value","Company_Type":"Private"},{"Description":"Mitsubishi Materials Corp.","country":"Japan","commodity":"Copper","fac_name":"Refinery at Naoshima","latitude":34.47,"longitude":133.98,"capacity":"226","symbol":"MUFG","Company_Type":"Public"},{"Description":"Kosaka Smelting and  Refining Co. Ltd. (wholly owned subsidiary of Dowa Mining Co. Ltd.)","country":"Japan","commodity":"Copper","fac_name":"Refinery at Kosaka","latitude":40.33,"longitude":140.75,"capacity":"72","symbol":"No Value","Company_Type":"Private"},{"Description":"Sumitomo Metal Mining Co. Ltd.","country":"Japan","commodity":"Copper","fac_name":"Refinery at Niihama","latitude":33.96,"longitude":133.26,"capacity":"1","symbol":"SMFG","Company_Type":"Public"},{"Description":"Pacific Metals Co. Ltd.","country":"Japan","commodity":"Nickel","fac_name":"Plant at Hachinohe","latitude":40.55,"longitude":141.49,"capacity":"41","symbol":"No Value","Company_Type":"Private"},{"Description":"Hyuga Smelting Co. Ltd. (wholly owned subsidiary of Sumitomo Metal Mining Co. Ltd.)","country":"Japan","commodity":"Nickel","fac_name":"Plant at Hyuga","latitude":32.45,"longitude":131.65,"capacity":"21","symbol":"No Value","Company_Type":"Private"},{"Description":"Yakin Oheyama Co. Ltd.","country":"Japan","commodity":"Nickel","fac_name":"Plant at Oheyama","latitude":35.48,"longitude":135.17,"capacity":"13","symbol":"No Value","Company_Type":"Private"},{"Description":"Tokyo Nickel Co. Ltd.","country":"Japan","commodity":"Nickel","fac_name":"Plant at Matsuzaka","latitude":34.6,"longitude":136.57,"capacity":"60","symbol":"No Value","Company_Type":"Private"},{"Description":"Sumitomo Metal Mining Co. Ltd.","country":"Japan","commodity":"Nickel","fac_name":"Refinery at Niihama","latitude":33.96,"longitude":133.26,"capacity":"36","symbol":"SMFG","Company_Type":"Public"},{"Description":"Agriculture Industry Development Enterprises","country":"Laos","commodity":"Coal","fac_name":"Mine at Savannakhet","latitude":18.93,"longitude":102.45,"capacity":"60","symbol":"No Value","Company_Type":"Private"},{"Description":"Viengphoukha Coal Mine Co. Ltd. of Thailand","country":"Laos","commodity":"Coal","fac_name":"Mine at Viengphoukha","latitude":20.95,"longitude":101.4,"capacity":"300","symbol":"No Value","Company_Type":"Private"},{"Description":"Lane Xang Minerals Ltd. (LXML) (wholly owned subsidiary of Oxiana Ltd.)","country":"Laos","commodity":"Copper","fac_name":"Mine at Sepon","latitude":16.96,"longitude":105.99,"capacity":"67.6","symbol":"No Value","Company_Type":"Private"},{"Description":"Lane Xang Minerals Ltd. (LXML) (wholly owned subsidiary of Oxiana Ltd.)","country":"Laos","commodity":"Copper","fac_name":"Refinery at Sepon","latitude":16.96,"longitude":105.99,"capacity":"63","symbol":"No Value","Company_Type":"Private"},{"Description":"Government Coal Mining Enterprise","country":"Mongolia","commodity":"Coal","fac_name":"Baganuur mine","latitude":47.74,"longitude":108.32,"capacity":"4000","symbol":"No Value","Company_Type":"Private"},{"Description":"Chinhua-Mak Nrlin Sukhait Co. (Sino-Mongolian joint venture)","country":"Mongolia","commodity":"Coal","fac_name":"Nariin Sukhait mine","latitude":43.0,"longitude":104.0,"capacity":"3000","symbol":"No Value","Company_Type":"Private"},{"Description":"Government Coal Mining Enterprise","country":"Mongolia","commodity":"Coal","fac_name":"Shivee Ovoo mine","latitude":46.22,"longitude":108.53,"capacity":"2000","symbol":"No Value","Company_Type":"Private"},{"Description":"Erdenet Mining Corp. (Mongolian-Russia joint venture)","country":"Mongolia","commodity":"Copper","fac_name":"Erdenet mine","latitude":49.02,"longitude":104.13,"capacity":"0","symbol":"No Value","Company_Type":"Private"},{"Description":"Erdenet Mining Corp. (Mongolian-Russia joint venture)","country":"Mongolia","commodity":"Copper","fac_name":"Erdene mineral processing plant","latitude":49.04,"longitude":104.15,"capacity":"0","symbol":"No Value","Company_Type":"Private"},{"Description":"Erdenet Mining Corp. (Mongolian-Russia joint venture)","country":"Mongolia","commodity":"Copper","fac_name":"Mine at Bulgan Province","latitude":49.04,"longitude":104.15,"capacity":"0","symbol":"No Value","Company_Type":"Private"},{"Description":"Soci\ufffdt\ufffd Le Nickel (SLN)","country":"New Caledonia","commodity":"Cobalt","fac_name":"Kouaoua mining center","latitude":-21.45,"longitude":165.76,"capacity":"2","symbol":"No Value","Company_Type":"Private"},{"Description":"Soci\ufffdt\ufffd Le Nickel (SLN)","country":"New Caledonia","commodity":"Cobalt","fac_name":"Nepoui-Kopeto mining center","latitude":-21.2,"longitude":165.08,"capacity":"2","symbol":"No Value","Company_Type":"Private"},{"Description":"Soci\ufffdt\ufffd Le Nickel (SLN)","country":"New Caledonia","commodity":"Cobalt","fac_name":"Poro mining center","latitude":-21.31,"longitude":165.73,"capacity":"2","symbol":"No Value","Company_Type":"Private"},{"Description":"Soci\ufffdt\ufffd Le Nickel (SLN)","country":"New Caledonia","commodity":"Cobalt","fac_name":"Thio mining center","latitude":-21.62,"longitude":166.18,"capacity":"2","symbol":"No Value","Company_Type":"Private"},{"Description":"Soci\ufffdt\ufffd Le Nickel (SLN)","country":"New Caledonia","commodity":"Cobalt","fac_name":"Tiebaghi mining center","latitude":-20.45,"longitude":164.22,"capacity":"2","symbol":"No Value","Company_Type":"Private"},{"Description":"Soci\ufffdt\ufffd Mini\ufffdre du Sud Pacifique","country":"New Caledonia","commodity":"Cobalt","fac_name":"Boakaine mining center","latitude":-21.49,"longitude":165.92,"capacity":"1","symbol":"No Value","Company_Type":"Private"},{"Description":"Soci\ufffdt\ufffd Mini\ufffdre du Sud Pacifique","country":"New Caledonia","commodity":"Cobalt","fac_name":"Ouaco mining center","latitude":-20.75,"longitude":164.48,"capacity":"1","symbol":"No Value","Company_Type":"Private"},{"Description":"Soci\ufffdt\ufffd Mini\ufffdre du Sud Pacifique","country":"New Caledonia","commodity":"Cobalt","fac_name":"Poum mining center","latitude":-20.25,"longitude":164.04,"capacity":"1","symbol":"No Value","Company_Type":"Private"},{"Description":"Soci\ufffdt\ufffd Mini\ufffdre du Sud Pacifique","country":"New Caledonia","commodity":"Cobalt","fac_name":"Poya mining center","latitude":-21.31,"longitude":165.16,"capacity":"1","symbol":"No Value","Company_Type":"Private"},{"Description":"Soci\ufffdt\ufffd M\ufffdtallurgique le Nickel-Soci\ufffdt\ufffd Le Nickel (SLN)","country":"New Caledonia","commodity":"Nickel","fac_name":"Plant at Doniambo, Noumea","latitude":-22.25,"longitude":166.44,"capacity":"60","symbol":"No Value","Company_Type":"Private"},{"Description":"Soci\ufffdt\ufffd M\ufffdtallurgique le Nickel-Soci\ufffdt\ufffd Le Nickel (SLN)","country":"New Caledonia","commodity":"Nickel","fac_name":"Plant at Doniambo, Noumea","latitude":-22.25,"longitude":166.44,"capacity":"15","symbol":"No Value","Company_Type":"Private"},{"Description":"Soci\ufffdt\ufffd Le Nickel (SLN)","country":"New Caledonia","commodity":"Nickel","fac_name":"Kouaoua mining center","latitude":-21.45,"longitude":165.76,"capacity":"62","symbol":"No Value","Company_Type":"Private"},{"Description":"Soci\ufffdt\ufffd Le Nickel (SLN)","country":"New Caledonia","commodity":"Nickel","fac_name":"Nepoui-Kopeto mining center","latitude":-21.2,"longitude":165.08,"capacity":"62","symbol":"No Value","Company_Type":"Private"},{"Description":"Soci\ufffdt\ufffd Le Nickel (SLN)","country":"New Caledonia","commodity":"Nickel","fac_name":"Poro mining center","latitude":-21.31,"longitude":165.73,"capacity":"62","symbol":"No Value","Company_Type":"Private"},{"Description":"Soci\ufffdt\ufffd Le Nickel (SLN)","country":"New Caledonia","commodity":"Nickel","fac_name":"Thio mining center","latitude":-21.62,"longitude":166.18,"capacity":"62","symbol":"No Value","Company_Type":"Private"},{"Description":"Soci\ufffdt\ufffd Le Nickel (SLN)","country":"New Caledonia","commodity":"Nickel","fac_name":"Tiebaghi mining center","latitude":-20.45,"longitude":164.22,"capacity":"62","symbol":"No Value","Company_Type":"Private"},{"Description":"Soci\ufffdt\ufffd Mini\ufffdre du Sud Pacifique including Nickel Mining Corp., and Noum\ufffda Nickel","country":"New Caledonia","commodity":"Nickel","fac_name":"Baokaine mining center","latitude":-21.49,"longitude":165.92,"capacity":"36","symbol":"No Value","Company_Type":"Private"},{"Description":"Soci\ufffdt\ufffd Mini\ufffdre du Sud Pacifique including Nickel Mining Corp., and Noum\ufffda Nickel","country":"New Caledonia","commodity":"Nickel","fac_name":"Kouaoua mining center","latitude":-21.45,"longitude":165.76,"capacity":"36","symbol":"No Value","Company_Type":"Private"},{"Description":"Soci\ufffdt\ufffd Mini\ufffdre du Sud Pacifique including Nickel Mining Corp., and Noum\ufffda Nickel","country":"New Caledonia","commodity":"Nickel","fac_name":"Nakety mining center","latitude":-21.53,"longitude":166.09,"capacity":"36","symbol":"No Value","Company_Type":"Private"},{"Description":"Soci\ufffdt\ufffd Mini\ufffdre du Sud Pacifique including Nickel Mining Corp., and Noum\ufffda Nickel","country":"New Caledonia","commodity":"Nickel","fac_name":"Ouaco mining center","latitude":-20.75,"longitude":164.48,"capacity":"36","symbol":"No Value","Company_Type":"Private"},{"Description":"Soci\ufffdt\ufffd Mini\ufffdre du Sud Pacifique including Nickel Mining Corp., and Noum\ufffda Nickel","country":"New Caledonia","commodity":"Nickel","fac_name":"Poum mining center","latitude":-20.25,"longitude":164.04,"capacity":"36","symbol":"No Value","Company_Type":"Private"},{"Description":"Soci\ufffdt\ufffd Mini\ufffdre du Sud Pacifique including Nickel Mining Corp., and Noum\ufffda Nickel","country":"New Caledonia","commodity":"Nickel","fac_name":"Poya mining center","latitude":-21.31,"longitude":165.16,"capacity":"36","symbol":"No Value","Company_Type":"Private"},{"Description":"Soci\ufffdt\ufffd de la Tontouta (Ballande Group)","country":"New Caledonia","commodity":"Nickel","fac_name":"Moneo mining center","latitude":-21.15,"longitude":165.49,"capacity":"16","symbol":"No Value","Company_Type":"Private"},{"Description":"Soci\ufffdt\ufffd de la Tontouta (Ballande Group)","country":"New Caledonia","commodity":"Nickel","fac_name":"Nakety mining center","latitude":-21.53,"longitude":166.09,"capacity":"16","symbol":"No Value","Company_Type":"Private"},{"Description":"Other small nickel mining companies, which include Soci\ufffdt\ufffd Mini\ufffdre George Montanant SA, GEMINI S.A.","country":"New Caledonia","commodity":"Nickel","fac_name":"Moneo mining center","latitude":-21.15,"longitude":165.49,"capacity":"7","symbol":"No Value","Company_Type":"Private"},{"Description":"Other small nickel mining companies, which include Soci\ufffdt\ufffd Mini\ufffdre George Montanant SA, GEMINI S.A.","country":"New Caledonia","commodity":"Nickel","fac_name":"Nakety-Bogota mining center","latitude":-21.53,"longitude":166.09,"capacity":"7","symbol":"No Value","Company_Type":"Private"},{"Description":"Other small nickel mining companies, which include Soci\ufffdt\ufffd Mini\ufffdre George Montanant SA, GEMINI S.A.","country":"New Caledonia","commodity":"Nickel","fac_name":"Tontouta mining center","latitude":-21.93,"longitude":166.21,"capacity":"7","symbol":"No Value","Company_Type":"Private"},{"Description":"New Zealand Aluminum Smelters Ltd.","country":"New Zealand","commodity":"Aluminum","fac_name":"Tiwai Point plant","latitude":-46.59,"longitude":168.38,"capacity":"350","symbol":"No Value","Company_Type":"Private"},{"Description":"Solid Energy New Zealand Ltd.","country":"New Zealand","commodity":"Coal","fac_name":"Stockton open pit mine","latitude":-41.67,"longitude":171.87,"capacity":"2500","symbol":"No Value","Company_Type":"Private"},{"Description":"Solid Energy New Zealand Ltd.","country":"New Zealand","commodity":"Coal","fac_name":"Mine at Hamilton","latitude":-37.78,"longitude":175.28,"capacity":"1500","symbol":"No Value","Company_Type":"Private"},{"Description":"Solid Energy New Zealand Ltd.","country":"New Zealand","commodity":"Coal","fac_name":"Rotowaro open pit mine","latitude":-37.61,"longitude":175.08,"capacity":"1500","symbol":"No Value","Company_Type":"Private"},{"Description":"Pike River Coal Ltd.","country":"New Zealand","commodity":"Coal","fac_name":"Pike River underground mine","latitude":-42.04,"longitude":171.8,"capacity":"1000","symbol":"No Value","Company_Type":"Private"},{"Description":"Solid Energy New Zealand Ltd.","country":"New Zealand","commodity":"Coal","fac_name":"Spring Creek underground mine","latitude":-42.5,"longitude":171.19,"capacity":"1000","symbol":"No Value","Company_Type":"Private"},{"Description":"Solid Energy New Zealand Ltd.","country":"New Zealand","commodity":"Coal","fac_name":"Huntly East underground mine","latitude":-37.54,"longitude":175.18,"capacity":"500","symbol":"No Value","Company_Type":"Private"},{"Description":"Solid Energy New Zealand Ltd.","country":"New Zealand","commodity":"Coal","fac_name":"Ohai open pit mine","latitude":-45.93,"longitude":167.95,"capacity":"200","symbol":"No Value","Company_Type":"Private"},{"Description":"Solid Energy New Zealand Ltd.","country":"New Zealand","commodity":"Coal","fac_name":"Terrace underground mine","latitude":-42.1,"longitude":171.85,"capacity":"100","symbol":"No Value","Company_Type":"Private"},{"Description":"Anju Coal Mining Complex and Sunchon Coal Mining Complex","country":"North Korea","commodity":"Coal","fac_name":"Mine at Anju","latitude":39.62,"longitude":125.66,"capacity":"9500","symbol":"No Value","Company_Type":"Private"},{"Description":"Anju Coal Mining Complex and Sunchon Coal Mining Complex","country":"North Korea","commodity":"Coal","fac_name":"Mine at Kaechon","latitude":39.67,"longitude":125.97,"capacity":"9500","symbol":"No Value","Company_Type":"Private"},{"Description":"Anju Coal Mining Complex and Sunchon Coal Mining Complex","country":"North Korea","commodity":"Coal","fac_name":"Mine at Pukchang","latitude":39.63,"longitude":126.31,"capacity":"9500","symbol":"No Value","Company_Type":"Private"},{"Description":"Anju Coal Mining Complex and Sunchon Coal Mining Complex","country":"North Korea","commodity":"Coal","fac_name":"Mine at Sunchon","latitude":39.41,"longitude":125.96,"capacity":"9500","symbol":"No Value","Company_Type":"Private"},{"Description":"Anju Coal Mining Complex and Sunchon Coal Mining Complex","country":"North Korea","commodity":"Coal","fac_name":"Mine at Tokechon","latitude":39.71,"longitude":126.3,"capacity":"9500","symbol":"No Value","Company_Type":"Private"},{"Description":"Saebyo Coal Mining Complex","country":"North Korea","commodity":"Coal","fac_name":"Mine at Saebyo","latitude":42.81,"longitude":130.2,"capacity":"6000","symbol":"No Value","Company_Type":"Private"},{"Description":"Hyesan Youth Copper Mine","country":"North Korea","commodity":"Copper","fac_name":"Mine at Hyesan","latitude":41.29,"longitude":128.35,"capacity":"13","symbol":"No Value","Company_Type":"Private"},{"Description":"Sindh Coal Authority","country":"Pakistan","commodity":"Coal","fac_name":"Mine at Thar","latitude":24.62,"longitude":70.21,"capacity":"0","symbol":"No Value","Company_Type":"Private"},{"Description":"Sindh Coal Authority","country":"Pakistan","commodity":"Coal","fac_name":"Mine at Dadu","latitude":25.71,"longitude":68.15,"capacity":"4000","symbol":"No Value","Company_Type":"Private"},{"Description":"Saindak Metals Ltd.","country":"Pakistan","commodity":"Copper","fac_name":"Plant at Chagai","latitude":29.29,"longitude":64.67,"capacity":"22","symbol":"No Value","Company_Type":"Private"},{"Description":"Ok Tedi Mining Ltd., operator","country":"Papua New Guinea","commodity":"Copper","fac_name":"Ok Tedi open pit mine","latitude":-5.21,"longitude":141.14,"capacity":"210","symbol":"No Value","Company_Type":"Private"},{"Description":"Ok Tedi Mining Ltd., operator","country":"Papua New Guinea","commodity":"Copper","fac_name":"Ok Tedi open pit mine","latitude":-5.21,"longitude":141.14,"capacity":"210","symbol":"No Value","Company_Type":"Private"},{"Description":"Philippine Associated Smelting and Refining Corp. (PASAR)","country":"Philippines","commodity":"Copper","fac_name":"Smelter at Isabel","latitude":10.9,"longitude":124.44,"capacity":"250","symbol":"PHI","Company_Type":"Public"},{"Description":"Philippine Associated Smelting and Refining Corp. (PASAR)","country":"Philippines","commodity":"Copper","fac_name":"Refinery at Isabel","latitude":10.9,"longitude":124.44,"capacity":"173","symbol":"PHI","Company_Type":"Public"},{"Description":"Lafayette Mining, Ltd.","country":"Philippines","commodity":"Copper","fac_name":"Rapu-Rapu Mine under the Rapu-Rapu polymetallic project","latitude":13.19,"longitude":124.12,"capacity":"36","symbol":"No Value","Company_Type":"Private"},{"Description":"Philex Mining Corp.","country":"Philippines","commodity":"Copper","fac_name":"Padcal Copper Project","latitude":16.31,"longitude":120.54,"capacity":"21","symbol":"No Value","Company_Type":"Private"},{"Description":"Lepanto Consolidated Mining Company","country":"Philippines","commodity":"Copper","fac_name":"Teresa Mine","latitude":16.87,"longitude":120.76,"capacity":"0.2","symbol":"No Value","Company_Type":"Private"},{"Description":"Lepanto Consolidated Mining Company","country":"Philippines","commodity":"Copper","fac_name":"Victoria Mine","latitude":16.87,"longitude":120.76,"capacity":"0.2","symbol":"No Value","Company_Type":"Private"},{"Description":"Hinatuan Mining Corp.","country":"Philippines","commodity":"Nickel","fac_name":"Tagana-an Nickel Project","latitude":9.77,"longitude":125.71,"capacity":"30","symbol":"No Value","Company_Type":"Private"},{"Description":"SR Metals, Inc.","country":"Philippines","commodity":"Nickel","fac_name":"SR Nickel Project - Tubay Mine","latitude":9.16,"longitude":125.53,"capacity":"25","symbol":"No Value","Company_Type":"Private"},{"Description":"Nickel Asia Corp.","country":"Philippines","commodity":"Nickel","fac_name":"Claver Nickel Project (Taganito)","latitude":9.48,"longitude":125.8,"capacity":"12","symbol":"No Value","Company_Type":"Private"},{"Description":"CTP Construction and Mining Corp.","country":"Philippines","commodity":"Nickel","fac_name":"Adlay-Cagdianao-Tandawa (ACT) Nickel Project","latitude":9.36,"longitude":125.84,"capacity":"10","symbol":"No Value","Company_Type":"Private"},{"Description":"Nickel Asia Corp.","country":"Philippines","commodity":"Nickel","fac_name":"Cagdianao Nickel Project","latitude":9.92,"longitude":125.67,"capacity":"10","symbol":"No Value","Company_Type":"Private"},{"Description":"Toledo Mining Corporation Plc","country":"Philippines","commodity":"Nickel","fac_name":"Berong Nickel Project","latitude":9.47,"longitude":118.21,"capacity":"10","symbol":"No Value","Company_Type":"Private"},{"Description":"Coral Bay Nickel Corp.","country":"Philippines","commodity":"Nickel","fac_name":"Coral Bay nickel high pressure acid leach (HPAL) plant","latitude":8.5,"longitude":117.44,"capacity":"10","symbol":"No Value","Company_Type":"Private"},{"Description":"Nickel Asia Corp.","country":"Philippines","commodity":"Nickel","fac_name":"Rio Tuba Nickel Project","latitude":8.5,"longitude":117.44,"capacity":"5","symbol":"No Value","Company_Type":"Private"},{"Description":"Hinatuan Mining Corp.","country":"Philippines","commodity":"Nickel","fac_name":"South Dinagat Project","latitude":9.84,"longitude":125.62,"capacity":"4","symbol":"No Value","Company_Type":"Private"},{"Description":"CRAU Mineral Resources Corp.","country":"Philippines","commodity":"Nickel","fac_name":"Sta. Cruz-Candelaria Nickel Project","latitude":15.72,"longitude":120.06,"capacity":"1","symbol":"No Value","Company_Type":"Private"},{"Description":"Korea Coal Corp.","country":"Republic of Korea","commodity":"Coal","fac_name":"Mine at Changsung","latitude":34.88,"longitude":128.62,"capacity":"2000","symbol":"No Value","Company_Type":"Private"},{"Description":"Korea Coal Corp.","country":"Republic of Korea","commodity":"Coal","fac_name":"Mine at Dogae","latitude":35.8,"longitude":128.55,"capacity":"2000","symbol":"No Value","Company_Type":"Private"},{"Description":"Korea Coal Corp.","country":"Republic of Korea","commodity":"Coal","fac_name":"Mine at Hwasoon","latitude":35.03,"longitude":127.07,"capacity":"2000","symbol":"No Value","Company_Type":"Private"},{"Description":"LS-Nikko Copper Inc.","country":"Republic of Korea","commodity":"Copper","fac_name":"Smelter at Onsan","latitude":35.43,"longitude":129.35,"capacity":"510","symbol":"No Value","Company_Type":"Private"},{"Description":"LS-Nikko Copper Inc.","country":"Republic of Korea","commodity":"Copper","fac_name":"Plant at Chanhang","latitude":34.74,"longitude":127.0,"capacity":"60","symbol":"No Value","Company_Type":"Private"},{"Description":"Korea Zinc Co. Ltd.","country":"Republic of Korea","commodity":"Copper","fac_name":"Smelter at Onsan","latitude":35.43,"longitude":129.35,"capacity":"20","symbol":"No Value","Company_Type":"Private"},{"Description":"Korea Nickel Corp.","country":"Republic of Korea","commodity":"Nickel","fac_name":"Plant at Kangwon","latitude":39.15,"longitude":127.44,"capacity":"48","symbol":"No Value","Company_Type":"Private"},{"Description":"Taiwan Nickel Refinery","country":"Taiwan","commodity":"Nickel","fac_name":"Plant at Kaohsiung","latitude":22.62,"longitude":120.31,"capacity":"14","symbol":"No Value","Company_Type":"Private"},{"Description":"Electricity Generating Authority of Thailand","country":"Thailand","commodity":"Coal","fac_name":"Mine at Mae Moh","latitude":18.32,"longitude":99.74,"capacity":"20000","symbol":"No Value","Company_Type":"Private"},{"Description":"Banpu Public Co. Ltd.","country":"Thailand","commodity":"Coal","fac_name":"Mine at Chiang Muan","latitude":18.88,"longitude":100.3,"capacity":"3400","symbol":"No Value","Company_Type":"Private"},{"Description":"Banpu Public Co. Ltd.","country":"Thailand","commodity":"Coal","fac_name":"Mine at Lampang (LP-2)","latitude":18.3,"longitude":99.51,"capacity":"3400","symbol":"No Value","Company_Type":"Private"},{"Description":"Lanna Lignite Public Co. Ltd.","country":"Thailand","commodity":"Coal","fac_name":"Mine at Ban Pakha","latitude":15.31,"longitude":101.97,"capacity":"1000","symbol":"No Value","Company_Type":"Private"},{"Description":"Thai Copper Industries Plc","country":"Thailand","commodity":"Copper","fac_name":"Refinery at Rayong","latitude":12.84,"longitude":101.44,"capacity":"165","symbol":"No Value","Company_Type":"Private"},{"Description":"Vietnam National Coal Corp. (100% state-owned)","country":"Vietnam","commodity":"Coal","fac_name":"Mine at Cam Pha","latitude":21.02,"longitude":107.32,"capacity":"40000","symbol":"No Value","Company_Type":"Private"},{"Description":"Vietnam National Coal Corp. (100% state-owned)","country":"Vietnam","commodity":"Coal","fac_name":"Mine at Cao Son","latitude":18.9,"longitude":105.16,"capacity":"40000","symbol":"No Value","Company_Type":"Private"},{"Description":"Vietnam National Coal Corp. (100% state-owned)","country":"Vietnam","commodity":"Coal","fac_name":"Mine at Cac Sau","latitude":21.25,"longitude":107.33,"capacity":"40000","symbol":"No Value","Company_Type":"Private"},{"Description":"Vietnam National Coal Corp. (100% state-owned)","country":"Vietnam","commodity":"Coal","fac_name":"Mine at Cua Ong","latitude":21.02,"longitude":107.32,"capacity":"40000","symbol":"No Value","Company_Type":"Private"},{"Description":"Vietnam National Coal Corp. (100% state-owned)","country":"Vietnam","commodity":"Coal","fac_name":"Mine at Deo Nai","latitude":21.02,"longitude":107.29,"capacity":"40000","symbol":"No Value","Company_Type":"Private"},{"Description":"Vietnam National Coal Corp. (100% state-owned)","country":"Vietnam","commodity":"Coal","fac_name":"Mine at Dong Trieu","latitude":21.08,"longitude":106.52,"capacity":"40000","symbol":"No Value","Company_Type":"Private"},{"Description":"Vietnam National Coal Corp. (100% state-owned)","country":"Vietnam","commodity":"Coal","fac_name":"Mine at Ha Lam","latitude":15.72,"longitude":108.35,"capacity":"40000","symbol":"No Value","Company_Type":"Private"},{"Description":"Vietnam National Coal Corp. (100% state-owned)","country":"Vietnam","commodity":"Coal","fac_name":"Mine at Ha Tu","latitude":20.96,"longitude":107.15,"capacity":"40000","symbol":"No Value","Company_Type":"Private"},{"Description":"Vietnam National Coal Corp. (100% state-owned)","country":"Vietnam","commodity":"Coal","fac_name":"Mine at Hong Gai","latitude":20.97,"longitude":107.14,"capacity":"40000","symbol":"No Value","Company_Type":"Private"},{"Description":"Vietnam National Coal Corp. (100% state-owned)","country":"Vietnam","commodity":"Coal","fac_name":"Mine at Khe Cham","latitude":21.58,"longitude":104.77,"capacity":"40000","symbol":"No Value","Company_Type":"Private"},{"Description":"Vietnam National Coal Corp. (100% state-owned)","country":"Vietnam","commodity":"Coal","fac_name":"Mine at Mao Khe","latitude":21.07,"longitude":106.62,"capacity":"40000","symbol":"No Value","Company_Type":"Private"},{"Description":"Vietnam National Coal Corp. (100% state-owned)","country":"Vietnam","commodity":"Coal","fac_name":"Mine at Mong Duong","latitude":21.02,"longitude":107.32,"capacity":"40000","symbol":"No Value","Company_Type":"Private"},{"Description":"Vietnam National Coal Corp. (100% state-owned)","country":"Vietnam","commodity":"Coal","fac_name":"Mine at Uong Bi in Quang Ninh Province","latitude":21.04,"longitude":106.79,"capacity":"40000","symbol":"No Value","Company_Type":"Private"},{"Description":"Lao Cai Copper Complex (wholly owned subsidiary of Vietnam National Minerals Corp.)","country":"Vietnam","commodity":"Copper","fac_name":"Mine at Sin Queyen","latitude":22.48,"longitude":103.95,"capacity":"11","symbol":"No Value","Company_Type":"Private"},{"Description":"Tang Loong Lao Cai Copper Smelting Enterprise (wholly owned subsidiary of Vietnam National Minerals Corp.)","country":"Vietnam","commodity":"Copper","fac_name":"Refinery at Tang Loong Long Commune","latitude":22.33,"longitude":104.12,"capacity":"10","symbol":"No Value","Company_Type":"Private"},{"Description":"Comsup Commodities, Inc. (United States)","country":"Armenia","commodity":"Copper","fac_name":"Facilities: Agarak copper-molybdenum mining and processing complex","latitude":38.91,"longitude":46.19,"capacity":"30","symbol":"No Value","Company_Type":"Private"},{"Description":"(OJSC) Azerbaijan Aluminum","country":"Azerbaijan","commodity":"Aluminum","fac_name":"Sumqayit smelter","latitude":40.58,"longitude":49.64,"capacity":"60","symbol":"No Value","Company_Type":"Private"},{"Description":"Kazzinc JSC","country":"Kazakhstan","commodity":"Copper","fac_name":"Maleevsky Mine","latitude":49.78,"longitude":84.32,"capacity":"62","symbol":"No Value","Company_Type":"Private"},{"Description":"Kazakhmys PLC Mines","country":"Kazakhstan","commodity":"Copper","fac_name":"Sayak Complex","latitude":46.96,"longitude":75.0,"capacity":"40","symbol":"No Value","Company_Type":"Private"},{"Description":"Kazakhmys PLC Mines","country":"Kazakhstan","commodity":"Copper","fac_name":"Mine at Shatyrkul","latitude":43.65,"longitude":73.87,"capacity":"12.7","symbol":"No Value","Company_Type":"Private"},{"Description":"Kazakhmys PLC Mines","country":"Kazakhstan","commodity":"Copper","fac_name":"Belousovskoe and Irtyshskoe Mines; Irtysh Complex","latitude":50.13,"longitude":82.51,"capacity":"8.4","symbol":"No Value","Company_Type":"Private"},{"Description":"Kazakhmys PLC Mines","country":"Kazakhstan","commodity":"Copper","fac_name":"Mine at  Artemyevskoe","latitude":50.0,"longitude":82.5,"capacity":"7.8","symbol":"No Value","Company_Type":"Private"},{"Description":"Kazakhmys PLC Mines","country":"Kazakhstan","commodity":"Copper","fac_name":"Smelter and refinery at Balkash","latitude":52.52,"longitude":68.75,"capacity":"250","symbol":"No Value","Company_Type":"Private"},{"Description":"Kazakhmys PLC Mines","country":"Kazakhstan","commodity":"Copper","fac_name":"Smelter and refinery at Zhezkazgan","latitude":47.78,"longitude":67.76,"capacity":"215","symbol":"No Value","Company_Type":"Private"},{"Description":"Kazzinc JSC","country":"Kazakhstan","commodity":"Copper","fac_name":"Smelter at Ust-Kamenogorsk","latitude":49.99,"longitude":82.61,"capacity":"8","symbol":"No Value","Company_Type":"Private"},{"Description":"RUSAL","country":"Russia","commodity":"Aluminum","fac_name":"Bratsk plant","latitude":56.13,"longitude":101.45,"capacity":"950","symbol":"No Value","Company_Type":"Private"},{"Description":"RUSAL","country":"Russia","commodity":"Aluminum","fac_name":"Krasnoyarskiy plant","latitude":56.09,"longitude":93.0,"capacity":"875","symbol":"No Value","Company_Type":"Private"},{"Description":"RUSAL","country":"Russia","commodity":"Aluminum","fac_name":"Sayansk plant","latitude":53.2,"longitude":91.45,"capacity":"425","symbol":"No Value","Company_Type":"Private"},{"Description":"RUSAL","country":"Russia","commodity":"Aluminum","fac_name":"Khakaz plant","latitude":53.2,"longitude":91.46,"capacity":"300","symbol":"No Value","Company_Type":"Private"},{"Description":"RUSAL","country":"Russia","commodity":"Aluminum","fac_name":"Novokuznetsk plant","latitude":53.78,"longitude":87.24,"capacity":"300","symbol":"No Value","Company_Type":"Private"},{"Description":"SUAL Group","country":"Russia","commodity":"Aluminum","fac_name":"Irkutsk plant","latitude":52.19,"longitude":104.09,"capacity":"300","symbol":"No Value","Company_Type":"Private"},{"Description":"SUAL Group","country":"Russia","commodity":"Aluminum","fac_name":"Bogoslovsky plant","latitude":59.77,"longitude":60.19,"capacity":"175","symbol":"No Value","Company_Type":"Private"},{"Description":"SUAL Group","country":"Russia","commodity":"Aluminum","fac_name":"Volgograd plant","latitude":48.83,"longitude":44.59,"capacity":"175","symbol":"No Value","Company_Type":"Private"},{"Description":"SUAL Group","country":"Russia","commodity":"Aluminum","fac_name":"Uralsk plant","latitude":56.37,"longitude":61.97,"capacity":"150","symbol":"No Value","Company_Type":"Private"},{"Description":"SUAL Group","country":"Russia","commodity":"Aluminum","fac_name":"Kandalaksha plant","latitude":67.2,"longitude":32.44,"capacity":"75","symbol":"No Value","Company_Type":"Private"},{"Description":"SUAL Group","country":"Russia","commodity":"Aluminum","fac_name":"Nadvoitsy plant","latitude":63.88,"longitude":34.27,"capacity":"75","symbol":"No Value","Company_Type":"Private"},{"Description":"SUAL Group","country":"Russia","commodity":"Aluminum","fac_name":"Volkhov plant","latitude":59.91,"longitude":32.34,"capacity":"20","symbol":"No Value","Company_Type":"Private"},{"Description":"Kuzbass","country":"Russia","commodity":"Coal","fac_name":"Kuzntesk Basin","latitude":53.12,"longitude":46.61,"capacity":"160","symbol":"No Value","Company_Type":"Private"},{"Description":"Tajik Aluminum Company (formerly Tajikistan Aluminum Smelter [TadAZ])","country":"Tajikistan","commodity":"Aluminum","fac_name":"TALCO at Tursunzade","latitude":38.55,"longitude":68.22,"capacity":"517","symbol":"No Value","Company_Type":"Private"},{"Description":"Central Asian Coal Association (mining)","country":"Uzbekistan","commodity":"Coal","fac_name":"Angren brown coal deposit","latitude":41.04,"longitude":70.18,"capacity":"6,000","symbol":"CAML.L","Company_Type":"Public"},{"Description":"Central Asian Coal Association (mining)","country":"Uzbekistan","commodity":"Coal","fac_name":"Baysunskoye and Shargunskoye deposits","latitude":37.2,"longitude":67.31,"capacity":"1,000","symbol":"CAML.L","Company_Type":"Public"},{"Description":"AMAG Casting GmbH","country":"Austria","commodity":"Aluminum","fac_name":"Secondary ingot plant at Ranshofen","latitude":48.22,"longitude":13.03,"capacity":"50","symbol":"No Value","Company_Type":"Private"},{"Description":"Aluminum Lend GmbH","country":"Austria","commodity":"Aluminum","fac_name":"Secondary ingot plant at Lend","latitude":47.3,"longitude":13.05,"capacity":"25","symbol":"No Value","Company_Type":"Private"},{"Description":"Montanwerke Brixlegg AG","country":"Austria","commodity":"Copper","fac_name":"Smelter at Brixlegg","latitude":47.43,"longitude":11.87,"capacity":"0","symbol":"No Value","Company_Type":"Private"},{"Description":"NV Umicore SA","country":"Belgium","commodity":"Cobalt","fac_name":"Refinery at Olen","latitude":51.18,"longitude":4.89,"capacity":"0.5","symbol":"No Value","Company_Type":"Private"},{"Description":"NV Umicore SA","country":"Belgium","commodity":"Copper","fac_name":"Refinery at Olen","latitude":51.18,"longitude":4.89,"capacity":"330","symbol":"No Value","Company_Type":"Private"},{"Description":"Metallo-Chimique NV","country":"Belgium","commodity":"Copper","fac_name":"Smelter at Beerse","latitude":51.32,"longitude":4.82,"capacity":"80","symbol":"No Value","Company_Type":"Private"},{"Description":"NV Umicore SA","country":"Belgium","commodity":"Copper","fac_name":"Smelter at Antwerp-Hoboken","latitude":51.17,"longitude":4.36,"capacity":"50","symbol":"No Value","Company_Type":"Private"},{"Description":"Aluminij d.d. Mostar","country":"Bosnia and Herzegovina","commodity":"Aluminum","fac_name":"Smelter at Mostar","latitude":43.28,"longitude":17.83,"capacity":"150","symbol":"No Value","Company_Type":"Private"},{"Description":"SOUR Titovi Rudnici Uglja, Tuzla","country":"Bosnia and Herzegovina","commodity":"Coal","fac_name":"Mine in Bihac","latitude":44.82,"longitude":15.87,"capacity":"12000","symbol":"No Value","Company_Type":"Private"},{"Description":"SOUR Titovi Rudnici Uglja, Tuzla","country":"Bosnia and Herzegovina","commodity":"Coal","fac_name":"Mine in Bihac","latitude":44.82,"longitude":15.87,"capacity":"7000","symbol":"No Value","Company_Type":"Private"},{"Description":"Economic Mining and Power Combine (SMEK) Balkanbass","country":"Bulgaria","commodity":"Coal","fac_name":"Mine at Balkan","latitude":43.25,"longitude":25.0,"capacity":"445","symbol":"No Value","Company_Type":"Private"},{"Description":"G. Dimitrov","country":"Bulgaria","commodity":"Coal","fac_name":"Mine at Pernik","latitude":42.59,"longitude":22.98,"capacity":"4000","symbol":"No Value","Company_Type":"Private"},{"Description":"Others","country":"Bulgaria","commodity":"Coal","fac_name":"Mine at Bobov Dol","latitude":42.37,"longitude":23.02,"capacity":"3100","symbol":"No Value","Company_Type":"Private"},{"Description":"Others","country":"Bulgaria","commodity":"Coal","fac_name":"Mine at Pirin","latitude":41.55,"longitude":23.56,"capacity":"3100","symbol":"No Value","Company_Type":"Private"},{"Description":"SMEK East Maritsa","country":"Bulgaria","commodity":"Coal","fac_name":"Mine at East Maritsa","latitude":42.22,"longitude":24.8,"capacity":"25000","symbol":"No Value","Company_Type":"Private"},{"Description":"Others","country":"Bulgaria","commodity":"Coal","fac_name":"Mine at Bobov Dol","latitude":42.37,"longitude":23.02,"capacity":"5300","symbol":"No Value","Company_Type":"Private"},{"Description":"Others","country":"Bulgaria","commodity":"Coal","fac_name":"Mine at Marbas","latitude":42.59,"longitude":22.98,"capacity":"5300","symbol":"No Value","Company_Type":"Private"},{"Description":"Others","country":"Bulgaria","commodity":"Coal","fac_name":"Mine at Pernik","latitude":42.59,"longitude":22.98,"capacity":"5300","symbol":"No Value","Company_Type":"Private"},{"Description":"Asarel-Medet AD.","country":"Bulgaria","commodity":"Copper","fac_name":"Mine at Panagurishte","latitude":42.55,"longitude":24.14,"capacity":"55","symbol":"No Value","Company_Type":"Private"},{"Description":"Asarel-Medet AD.","country":"Bulgaria","commodity":"Copper","fac_name":"Plant at Panagurishte","latitude":42.55,"longitude":24.13,"capacity":"55","symbol":"No Value","Company_Type":"Private"},{"Description":"Elatzite-Med Ltd.","country":"Bulgaria","commodity":"Copper","fac_name":"Mine at Srednogorie","latitude":42.7,"longitude":24.02,"capacity":"20","symbol":"No Value","Company_Type":"Private"},{"Description":"Elatzite-Med Ltd.","country":"Bulgaria","commodity":"Copper","fac_name":"Plant at Srednogorie","latitude":42.7,"longitude":24.02,"capacity":"20","symbol":"No Value","Company_Type":"Private"},{"Description":"Chelopech Mining Ltd","country":"Bulgaria","commodity":"Copper","fac_name":"Mine at Chelopech","latitude":42.7,"longitude":24.07,"capacity":"15","symbol":"No Value","Company_Type":"Private"},{"Description":"Chelopech Mining Ltd","country":"Bulgaria","commodity":"Copper","fac_name":"Plant at Chelopech","latitude":42.7,"longitude":24.07,"capacity":"15","symbol":"No Value","Company_Type":"Private"},{"Description":"Bradtze","country":"Bulgaria","commodity":"Copper","fac_name":"Mine at Malko Turnovo","latitude":41.98,"longitude":27.53,"capacity":"2","symbol":"No Value","Company_Type":"Private"},{"Description":"Bradtze","country":"Bulgaria","commodity":"Copper","fac_name":"Plant at Malko Turnovo","latitude":41.98,"longitude":27.53,"capacity":"2","symbol":"No Value","Company_Type":"Private"},{"Description":"Tsar Asen","country":"Bulgaria","commodity":"Copper","fac_name":"Mine at Srednogorie","latitude":42.36,"longitude":24.34,"capacity":"2","symbol":"No Value","Company_Type":"Private"},{"Description":"Tsar Asen","country":"Bulgaria","commodity":"Copper","fac_name":"Plant at Srednogorie","latitude":42.36,"longitude":24.34,"capacity":"2","symbol":"No Value","Company_Type":"Private"},{"Description":"Rosen","country":"Bulgaria","commodity":"Copper","fac_name":"Mine at Burgas","latitude":42.44,"longitude":27.38,"capacity":"1","symbol":"No Value","Company_Type":"Private"},{"Description":"Burgaskii Mines Ltd., Zidorovo","country":"Bulgaria","commodity":"Copper","fac_name":"Mine at Burgas","latitude":42.44,"longitude":27.38,"capacity":"0.5","symbol":"No Value","Company_Type":"Private"},{"Description":"Cumerio Med SA (Pirdop)","country":"Bulgaria","commodity":"Copper","fac_name":"Mine at Pirdop","latitude":42.75,"longitude":24.03,"capacity":"150","symbol":"No Value","Company_Type":"Private"},{"Description":"Cumerio Med SA (Pirdop)","country":"Bulgaria","commodity":"Copper","fac_name":"Plant at Pirdop","latitude":42.72,"longitude":24.17,"capacity":"150","symbol":"No Value","Company_Type":"Private"},{"Description":"Cumerio Med SA (Pirdop)","country":"Bulgaria","commodity":"Copper","fac_name":"Mine at Pirdop","latitude":42.75,"longitude":24.03,"capacity":"30","symbol":"No Value","Company_Type":"Private"},{"Description":"Cumerio Med SA (Pirdop)","country":"Bulgaria","commodity":"Copper","fac_name":"Plant at Pirdop","latitude":42.72,"longitude":24.17,"capacity":"30","symbol":"No Value","Company_Type":"Private"},{"Description":"Top-Tvornica Olovni i Aluminjskikh","country":"Croatia","commodity":"Aluminum","fac_name":"Semimanufactures producer at Savska","latitude":45.45,"longitude":16.39,"capacity":"0","symbol":"No Value","Company_Type":"Private"},{"Description":"TLM d.d.","country":"Croatia","commodity":"Aluminum","fac_name":"Smelter at Sibenik","latitude":43.71,"longitude":15.91,"capacity":"75","symbol":"No Value","Company_Type":"Private"},{"Description":"Istarski Ugljenokopi Rasa","country":"Croatia","commodity":"Coal","fac_name":"Mine at Labin","latitude":45.08,"longitude":14.13,"capacity":"500","symbol":"No Value","Company_Type":"Private"},{"Description":"Istarski Ugljenokopi Rasa","country":"Croatia","commodity":"Coal","fac_name":"Mine at Potpican","latitude":45.2,"longitude":14.09,"capacity":"500","symbol":"No Value","Company_Type":"Private"},{"Description":"A & E Aluminum Recycling, Ltd.","country":"Cyprus","commodity":"Nickel","fac_name":"Plant at Nicosia","latitude":35.17,"longitude":33.37,"capacity":"0","symbol":"No Value","Company_Type":"Private"},{"Description":"Muskita Aluminum Industries, Ltd.","country":"Cyprus","commodity":"Nickel","fac_name":"Extrusion presses at Limassol","latitude":34.67,"longitude":33.0,"capacity":"18","symbol":"No Value","Company_Type":"Private"},{"Description":"Kovohute Holdings DT - Mnisek Division","country":"Czech Republic","commodity":"Nickel","fac_name":"Smelter at Mnisek","latitude":49.03,"longitude":14.91,"capacity":"70000","symbol":"No Value","Company_Type":"Private"},{"Description":"Alcan Decin Extrusions s.r.o","country":"Czech Republic","commodity":"Nickel","fac_name":"Smelter at Decin","latitude":50.77,"longitude":14.21,"capacity":"40000","symbol":"No Value","Company_Type":"Private"},{"Description":"OKD a.s Ostrava","country":"Czech Republic","commodity":"Coal","fac_name":"Mine at Ostrava-Karvina","latitude":49.74,"longitude":18.3,"capacity":"20000","symbol":"No Value","Company_Type":"Private"},{"Description":"Sokolovska Uhelna a.s","country":"Czech Republic","commodity":"Coal","fac_name":"Mine at Sokolov","latitude":50.21,"longitude":12.67,"capacity":"30000","symbol":"No Value","Company_Type":"Private"},{"Description":"Mostecka Uhelna Spolecnost a.s","country":"Czech Republic","commodity":"Coal","fac_name":"Mine at Most","latitude":50.51,"longitude":13.58,"capacity":"17000","symbol":"No Value","Company_Type":"Private"},{"Description":"Severoceske Doly a.s","country":"Czech Republic","commodity":"Coal","fac_name":"Mine at Chomotuv","latitude":50.42,"longitude":13.37,"capacity":"14000","symbol":"No Value","Company_Type":"Private"},{"Description":"Lignit Hodonin s.r.o","country":"Czech Republic","commodity":"Coal","fac_name":"Mine at Hodonin","latitude":48.87,"longitude":17.13,"capacity":"1000","symbol":"No Value","Company_Type":"Private"},{"Description":"Outokumpu Oyj","country":"Finland","commodity":"Copper","fac_name":"Smelter at Harjavalta","latitude":61.32,"longitude":22.13,"capacity":"160","symbol":"No Value","Company_Type":"Private"},{"Description":"Outokumpu Oyj","country":"Finland","commodity":"Copper","fac_name":"Refinery at Pori","latitude":61.6,"longitude":21.51,"capacity":"125","symbol":"No Value","Company_Type":"Private"},{"Description":"Inmet Mining Corp.","country":"Finland","commodity":"Copper","fac_name":"Mine at Pyhasalmi","latitude":63.67,"longitude":26.03,"capacity":"10","symbol":"No Value","Company_Type":"Private"},{"Description":"Inmet Mining Corp.","country":"Finland","commodity":"Copper","fac_name":"Mine at Saattopora","latitude":67.79,"longitude":24.41,"capacity":"10","symbol":"No Value","Company_Type":"Private"},{"Description":"OM Group, Inc.","country":"Finland","commodity":"Nickel","fac_name":"Refinery at Harjavalta","latitude":61.32,"longitude":22.13,"capacity":"50","symbol":"No Value","Company_Type":"Private"},{"Description":"Outokumpu Oyj","country":"Finland","commodity":"Nickel","fac_name":"Smelter at Harjavalta","latitude":61.32,"longitude":22.13,"capacity":"32","symbol":"No Value","Company_Type":"Private"},{"Description":"Aluminum Dunkerque","country":"France","commodity":"Aluminum","fac_name":"Smelter at Dunkerque","latitude":51.0,"longitude":2.17,"capacity":"250","symbol":"No Value","Company_Type":"Private"},{"Description":"Aluminum Pechiney","country":"France","commodity":"Aluminum","fac_name":"Smelter at Saint-Jean-de-Maurienne","latitude":45.27,"longitude":6.38,"capacity":"120","symbol":"No Value","Company_Type":"Private"},{"Description":"Aluminum Pechiney","country":"France","commodity":"Aluminum","fac_name":"Smelter at Nogueres","latitude":43.37,"longitude":-0.59,"capacity":"115","symbol":"No Value","Company_Type":"Private"},{"Description":"Aluminum Pechiney","country":"France","commodity":"Aluminum","fac_name":"Smelter at Pyrenees","latitude":43.09,"longitude":0.38,"capacity":"115","symbol":"No Value","Company_Type":"Private"},{"Description":"Aluminum Pechiney","country":"France","commodity":"Aluminum","fac_name":"Smelter at Lannemezan","latitude":43.09,"longitude":0.38,"capacity":"63","symbol":"No Value","Company_Type":"Private"},{"Description":"Soci\ufffdt\ufffd M\ufffdtallurgique le Nickel (SLN)","country":"France","commodity":"Cobalt","fac_name":"Plant at Sandouville, near Le Havre","latitude":49.48,"longitude":0.32,"capacity":"600","symbol":"No Value","Company_Type":"Private"},{"Description":"Compagnie G\ufffdn\ufffdrale d'\ufffdlectrolyse du Palais","country":"France","commodity":"Copper","fac_name":"Electrolytic plant at Palais-sur-Vienne","latitude":45.85,"longitude":1.3,"capacity":"45","symbol":"No Value","Company_Type":"Private"},{"Description":"Soci\ufffdt\ufffd Fran\ufffdaise d'Affinage du Cuivre","country":"France","commodity":"Copper","fac_name":"Smelter at Poissy, Yvelines","latitude":48.94,"longitude":2.05,"capacity":"11","symbol":"No Value","Company_Type":"Private"},{"Description":"Soci\ufffdt\ufffd M\ufffdtallurgia le Nickel (SLN)","country":"France","commodity":"Nickel","fac_name":"Plant at Sandouville","latitude":49.48,"longitude":0.3,"capacity":"16","symbol":"No Value","Company_Type":"Private"},{"Description":"Aluminum Norf GmbH","country":"Germany","commodity":"Aluminum","fac_name":"Lippenwerk at L\ufffdnen (Secondary)","latitude":51.21,"longitude":6.71,"capacity":"600","symbol":"No Value","Company_Type":"Private"},{"Description":"Aluminum Norf GmbH","country":"Germany","commodity":"Aluminum","fac_name":"Primary rolling mill at Neuss","latitude":51.49,"longitude":6.97,"capacity":"600","symbol":"No Value","Company_Type":"Private"},{"Description":"Aleris Recycling (German Works) GmbH","country":"Germany","commodity":"Aluminum","fac_name":"Secondary smelter: Neckarwerk at Deizisau","latitude":51.09,"longitude":6.62,"capacity":"320","symbol":"No Value","Company_Type":"Private"},{"Description":"Aleris Recycling (German Works) GmbH","country":"Germany","commodity":"Aluminum","fac_name":"Secondary smelter:  Erftwerk at Grevenbroich","latitude":48.25,"longitude":12.59,"capacity":"320","symbol":"No Value","Company_Type":"Private"},